City_ID,City,Lat,Lng,Max Temp,Humidity,Cloudiness,Wind Speed,Country,Date
0,mitsamiouli,-11.3847,43.2844,23.16,88,20,2.57,KM,1695353674
1,vila velha,-20.3297,-40.2925,21.64,91,20,2.06,BR,1695353675
2,juneau,58.3019,-134.4197,12.0,100,100,2.57,US,1695353483
3,kabalo,-6.05,26.9167,22.98,72,100,0.89,CD,1695353675
4,shumikha,55.2261,63.2961,14.85,66,96,6.13,RU,1695353676
5,taoudenni,22.6783,-3.9836,34.42,11,86,3.44,ML,1695353676
6,blackmans bay,-43.0167,147.3167,15.41,55,63,2.32,AU,1695353676
7,port-aux-francais,-49.35,70.2167,2.62,73,65,9.28,TF,1695353676
8,sing buri,14.85,100.2333,30.08,63,100,0.73,TH,1695353677
9,phon charoen,18.0333,103.1667,31.64,71,95,2.42,TH,1695353677
10,ust-tsilma,65.441,52.1498,4.38,92,81,3.36,RU,1695353677
11,klyuchi,52.2667,79.1667,16.92,51,42,4.36,RU,1695353677
12,waitangi,-43.9535,-176.5597,14.9,88,42,3.58,NZ,1695353678
13,noumea,-22.2763,166.4572,27.22,99,29,0.85,NC,1695353659
14,iqaluit,63.7506,-68.5145,-1.15,92,100,3.09,CA,1695353416
15,coyhaique,-45.5752,-72.0662,1.34,80,0,2.06,CL,1695353678
16,afaahiti,-17.75,-149.2833,22.93,82,95,4.77,PF,1695353679
17,karasuk,53.7377,78.0403,14.79,50,34,6.29,RU,1695353679
18,agat village,13.3886,144.6585,30.2,88,40,1.54,GU,1695353679
19,quellon,-43.1167,-73.6167,2.14,93,40,0.51,CL,1695353679
20,wailua homesteads,22.0669,-159.378,28.24,70,0,8.23,US,1695353601
21,grytviken,-54.2811,-36.5092,-4.0,77,100,6.63,GS,1695353680
22,georgetown,5.4112,100.3354,29.41,81,20,2.68,MY,1695353438
23,souran,35.2916,36.7488,23.16,62,0,1.58,SY,1695353680
24,puerto natales,-51.7236,-72.4875,-0.31,91,36,1.71,CL,1695353681
25,san patricio,28.017,-97.5169,29.91,71,31,4.5,US,1695353681
26,albany,42.6001,-73.9662,12.11,89,4,1.67,US,1695353424
27,narasannapeta,18.4167,84.05,29.1,72,100,2.3,IN,1695353681
28,bethel,41.3712,-73.414,15.17,87,0,1.54,US,1695353403
29,jiazi,22.8779,116.067,30.09,70,8,3.75,CN,1695353682
30,ocean city,39.2776,-74.5746,19.43,76,100,2.24,US,1695353682
31,las vegas,36.175,-115.1372,27.41,15,0,12.07,US,1695353280
32,newman,37.3138,-121.0208,23.13,63,6,2.24,US,1695353683
33,bilibino,68.0546,166.4372,3.41,85,100,0.27,RU,1695353683
34,dadukou,26.5479,101.7054,26.44,75,88,0.66,CN,1695353683
35,sinjar,36.3209,41.8754,28.2,18,0,2.06,IQ,1695353683
36,longyearbyen,78.2186,15.6401,-2.09,86,75,2.57,SJ,1695353684
37,west island,-12.1568,96.8225,26.99,69,68,5.14,CC,1695353684
38,haiku-pauwela,20.9219,-156.3051,25.09,71,75,7.72,US,1695353684
39,port lincoln,-34.7333,135.8667,15.3,59,57,4.79,AU,1695353684
40,edinburgh of the seven seas,-37.0676,-12.3116,11.34,60,32,11.78,SH,1695353685
41,udachny,66.4167,112.4,5.25,64,98,7.87,RU,1695353685
42,whitehorse,60.7161,-135.0538,8.43,85,75,5.14,CA,1695353660
43,seven pagodas,12.6264,80.1722,30.59,70,100,5.07,IN,1695353685
44,sao vicente,-23.9631,-46.3919,25.15,82,0,1.34,BR,1695353686
45,praia da vitoria,38.7333,-27.0667,20.42,73,40,4.69,PT,1695353686
46,lupane,-18.9315,27.807,18.19,36,1,2.92,ZW,1695353686
47,miles city,46.4083,-105.8406,18.54,72,0,6.69,US,1695353687
48,east london,-33.0153,27.9116,16.52,72,0,3.09,ZA,1695353418
49,fort mcmurray,56.7268,-111.381,14.73,47,0,3.6,CA,1695353414
50,bredasdorp,-34.5322,20.0403,12.17,90,100,1.44,ZA,1695353687
51,lexington,37.9887,-84.4777,22.0,65,0,2.06,US,1695353484
52,st. john's,47.5649,-52.7093,9.98,95,100,10.29,CA,1695353688
53,karatuzskoye,53.6072,92.8667,16.52,58,0,0.54,RU,1695353688
54,olonkinbyen,70.9221,-8.7187,3.11,79,98,7.25,SJ,1695353688
55,sao gabriel da cachoeira,-0.1303,-67.0892,23.29,89,38,0.71,BR,1695353689
56,mount gambier,-37.8333,140.7667,15.3,47,30,2.44,AU,1695353689
57,smara,26.7384,-11.6719,18.23,87,0,3.11,EH,1695353689
58,talnakh,69.4865,88.3972,8.45,98,100,3.93,RU,1695353644
59,renqiu,38.6989,116.0936,27.15,37,0,5.15,CN,1695353690
60,aasiaat,68.7098,-52.8699,-6.96,77,5,2.42,GL,1695353690
61,la toma,-33.0526,-65.6238,14.79,75,1,0.79,AR,1695353690
62,hawaiian paradise park,19.5933,-154.9731,26.73,79,75,2.57,US,1695353690
63,qaqortoq,60.7167,-46.0333,3.86,78,100,1.76,GL,1695353690
64,kutum,14.2,24.6667,26.43,28,90,3.58,SD,1695353691
65,selkirk,50.1436,-96.8845,13.38,88,100,0.89,CA,1695353691
66,rumonge,-3.9736,29.4386,23.52,68,99,1.91,BI,1695353691
67,nguigmi,14.2495,13.1092,30.63,25,85,2.9,NE,1695353691
68,college,64.8569,-147.8028,6.15,81,75,4.63,US,1695353692
69,makokou,0.5738,12.8642,21.06,99,100,0.87,GA,1695353692
70,tiksi,71.6872,128.8694,2.57,61,94,8.42,RU,1695353692
71,atafu village,-8.5421,-172.5159,27.76,79,83,5.65,TK,1695353692
72,stanley,54.868,-1.6985,7.01,91,0,2.06,GB,1695353693
73,porbandar,21.6422,69.6093,27.77,82,100,4.3,IN,1695353693
74,port mathurin,-19.6833,63.4167,23.03,70,65,7.01,MU,1695353693
75,fale old settlement,-9.3852,-171.2468,27.43,81,91,6.87,TK,1695353693
76,yeniseysk,58.4497,92.1703,16.32,64,94,4.71,RU,1695353694
77,arrifes,37.7667,-25.7,18.29,77,20,4.63,PT,1695353694
78,ushuaia,-54.8,-68.3,0.81,69,0,3.09,AR,1695353694
79,siem reap,13.5,104.0,27.86,60,94,0.56,KH,1695353694
80,dom pedrito,-30.9828,-54.6731,21.02,98,100,1.55,BR,1695353695
81,tazovsky,67.4667,78.7,4.1,90,100,8.35,RU,1695353695
82,utrik,11.2278,169.8474,28.55,74,37,3.4,MH,1695353695
83,kingston,17.997,-76.7936,28.53,85,20,2.57,JM,1695353415
84,invercargill,-46.4,168.35,9.45,70,90,1.79,NZ,1695353482
85,turinsk,58.0458,63.696,14.83,72,96,6.42,RU,1695353696
86,bada,51.392,109.8717,16.27,45,52,2.88,RU,1695353696
87,kodiak,57.79,-152.4072,9.73,62,20,2.57,US,1695353696
88,tralee,52.2704,-9.7026,11.04,81,92,6.7,IE,1695353697
89,petropavlovsk-kamchatsky,53.0452,158.6483,15.33,36,20,5.0,RU,1695353697
90,anadyr,64.75,177.4833,6.28,93,100,11.0,RU,1695353698
91,nouadhibou,20.931,-17.0347,24.99,65,76,6.69,MR,1695353698
92,huarmey,-10.0681,-78.1522,18.54,88,10,4.62,PE,1695353698
93,hithadhoo,-0.6,73.0833,28.02,75,61,3.84,MV,1695353698
94,akureyri,65.6835,-18.0878,2.96,81,100,1.54,IS,1695353699
95,corlu,41.1592,27.8,14.99,88,0,1.03,TR,1695353699
96,katsuura,35.1333,140.3,27.18,79,100,6.72,JP,1695353699
97,badger,64.8,-147.5333,6.1,82,75,4.63,US,1695353699
98,abalak,58.1286,68.5944,14.63,61,99,6.57,RU,1695353700
99,kachug,53.9606,105.8817,15.13,47,79,0.53,RU,1695353700
100,yamada,39.4667,141.95,22.37,74,90,2.04,JP,1695353700
101,mahanoro,-19.9,48.8,22.1,74,12,1.13,MG,1695353700
102,gladstone,-23.85,151.25,26.96,50,0,9.77,AU,1695353701
103,lihue,21.9789,-159.3672,28.58,69,0,8.23,US,1695353701
104,bargaal,11.2864,51.0773,29.56,62,86,4.84,SO,1695353701
105,morteros,-30.7116,-61.9986,18.9,78,87,4.59,AR,1695353702
106,ust-nera,64.5667,143.2,1.74,66,81,1.08,RU,1695353702
107,ararat,39.8317,44.7049,16.19,50,3,0.16,AM,1695353703
108,ceeldheer,3.8488,47.1806,26.13,85,71,6.51,SO,1695353703
109,yellowknife,62.456,-114.3525,11.9,86,40,0.0,CA,1695353703
110,forster,-32.1667,152.5167,17.43,60,35,5.67,AU,1695353704
111,malabar,-33.9667,151.25,19.61,58,40,7.72,AU,1695353704
112,avarua,-21.2078,-159.775,21.03,64,75,3.6,CK,1695353705
113,egilsstadir,65.2653,-14.3948,2.95,93,75,3.6,IS,1695353705
114,lebu,-37.6167,-73.65,12.35,89,93,7.36,CL,1695353706
115,hermanus,-34.4187,19.2345,11.0,84,100,3.18,ZA,1695353706
116,margaret river,-33.95,115.0667,20.85,60,10,4.4,AU,1695353706
117,carloforte,39.145,8.3058,23.79,78,91,2.86,IT,1695353707
118,huron,41.1501,-82.5499,20.38,68,100,3.67,US,1695353707
119,rio verde de mato grosso,-18.9181,-54.8442,29.87,37,39,0.77,BR,1695353708
120,mejit,10.2753,170.8646,28.74,73,64,5.23,MH,1695353708
121,bandon,51.7469,-8.7425,9.77,89,89,5.34,IE,1695353709
122,cill airne,52.05,-9.5167,10.44,88,93,4.65,IE,1695353709
123,peniche,39.3558,-9.3811,17.18,89,78,4.94,PT,1695353709
124,thompson,55.7435,-97.8558,8.09,93,20,0.0,CA,1695353432
125,masterton,-40.9597,175.6575,17.16,62,22,4.96,NZ,1695353710
126,al fulah,11.7329,28.3579,25.28,68,42,2.59,SD,1695353710
127,susuman,62.7833,148.1667,2.6,67,100,0.79,RU,1695353711
128,holualoa,19.6228,-155.9522,25.43,66,75,6.69,US,1695353711
129,solwezi,-12.1688,26.3894,15.94,43,5,1.87,ZM,1695353711
130,bamboo flat,11.7,92.7167,29.05,79,40,4.12,IN,1695353711
131,hailey,43.5196,-114.3153,7.11,75,0,3.13,US,1695353712
132,mawlamyinegyunn,16.3833,95.2667,30.37,70,72,2.4,MM,1695353712
133,san antonio de pale,-1.4014,5.6325,24.42,83,100,4.8,GQ,1695353713
134,mirpur sakro,24.5474,67.6277,29.62,75,11,1.77,PK,1695353713
135,tarawa,1.419,172.984,32.05,66,40,4.12,KI,1695353713
136,lichtenburg,-26.152,26.1597,13.3,14,0,2.85,ZA,1695353714
137,bel ombre,-4.6167,55.4167,27.91,78,40,6.69,SC,1695353714
138,okhotsk,59.3833,143.3,9.5,55,100,4.27,RU,1695353714
139,novo aripuana,-5.1206,-60.3797,26.15,61,20,0.88,BR,1695353715
140,newton,42.337,-71.2092,15.46,90,0,0.0,US,1695353646
141,la'ie,21.6477,-157.9253,28.98,75,100,4.02,US,1695353715
142,jianshui,23.6363,102.8264,26.89,62,83,2.37,CN,1695353716
143,san carlos,9.6612,-68.5827,24.28,92,39,1.2,VE,1695353716
144,hassi messaoud,31.6804,6.0729,28.92,24,0,1.54,DZ,1695353716
145,serdar,38.9764,56.2757,20.09,32,0,4.35,TM,1695353717
146,kodinsk,58.6881,99.1844,15.0,71,100,4.18,RU,1695353717
147,kourou,5.1552,-52.6478,27.03,89,18,4.48,GF,1695353717
148,yuzhno-kurilsk,44.0306,145.8556,14.48,89,99,2.77,RU,1695353718
149,dundalk,39.2507,-76.5205,19.99,73,0,4.02,US,1695353718
150,wasagu,11.3764,5.7954,22.51,88,94,2.16,NG,1695353718
151,hobyo,5.3505,48.5268,26.02,85,77,7.67,SO,1695353719
152,tambopata,-12.7333,-69.1833,26.63,65,82,0.11,PE,1695353719
153,fort st. john,56.2499,-120.8529,15.94,48,75,5.66,CA,1695353719
154,papatowai,-46.5619,169.4708,7.44,74,100,3.36,NZ,1695353720
155,istaravshan,39.9142,69.0033,15.01,41,2,2.65,TJ,1695353720
156,nadi,-17.8,177.4167,26.0,69,75,1.03,FJ,1695353721
157,itoman,26.1247,127.6694,32.21,74,75,4.12,JP,1695353721
158,kirkwall,58.9848,-2.9587,11.09,87,75,4.12,GB,1695353721
159,smithers,54.7804,-127.1743,14.18,72,20,2.57,CA,1695353722
160,port saint john's,-31.6229,29.5448,17.02,72,0,1.74,ZA,1695353722
161,ulladulla,-35.35,150.4667,18.2,46,5,3.59,AU,1695353722
162,palu,-0.8917,119.8707,28.85,83,46,1.76,ID,1695353723
163,bubaque,11.2833,-15.8333,27.72,79,99,4.61,GW,1695353723
164,happy valley-goose bay,53.3168,-60.3315,5.17,75,75,2.57,CA,1695353723
165,arica,-18.475,-70.3042,19.13,72,100,2.06,CL,1695353373
166,vilyuchinsk,52.9306,158.4028,16.15,48,6,4.29,RU,1695353724
167,arraial do cabo,-22.9661,-42.0278,20.91,90,0,11.99,BR,1695353654
168,ariquemes,-9.9133,-63.0408,26.68,57,0,0.51,BR,1695353724
169,saint-pierre,-21.3393,55.4781,24.82,57,100,1.54,RE,1695353724
170,birao,10.2849,22.7882,21.8,91,100,0.52,CF,1695353725
171,casper,42.8666,-106.3131,16.33,47,0,4.12,US,1695353725
172,floro,61.5996,5.0328,12.98,76,100,5.14,NO,1695353725
173,jamestown,42.097,-79.2353,16.8,88,0,2.57,US,1695353525
174,saint-philippe,-21.3585,55.7679,24.77,83,39,5.41,RE,1695353726
175,yulinshi,38.2906,109.7494,21.49,46,100,4.57,CN,1695353726
176,alofi,-19.0595,-169.9187,20.94,88,100,8.23,NU,1695353726
177,siavonga,-16.5382,28.7088,22.77,46,5,2.63,ZM,1695353727
178,gavarr,40.354,45.1239,11.87,78,24,0.87,AM,1695353727
179,chela,34.069,104.4619,11.87,89,100,1.54,CN,1695353727
180,uturoa,-16.7333,-151.4333,25.12,79,89,5.66,PF,1695353728
181,ribeira grande,38.5167,-28.7,21.54,77,25,6.71,PT,1695353728
182,port blair,11.6667,92.75,29.02,79,40,4.12,IN,1695353728
183,issa,53.8705,44.8578,14.5,57,17,2.47,RU,1695353729
184,buka,40.8108,69.1986,18.54,35,1,0.69,UZ,1695353729
185,selfoss,63.9331,-20.9971,2.8,66,96,4.11,IS,1695353729
186,morondava,-20.2833,44.2833,23.15,75,0,4.56,MG,1695353729
187,oxelosund,58.6706,17.1015,17.71,94,0,5.14,SE,1695353730
188,fortuna,40.5982,-124.1573,12.21,86,75,2.06,US,1695353730
189,alice springs,-23.7,133.8833,26.75,19,14,5.66,AU,1695353730
190,miracema do tocantins,-9.5618,-48.3967,26.62,26,0,1.86,BR,1695353731
191,lhokseumawe,5.1801,97.1507,28.69,69,100,3.41,ID,1695353731
192,gimbi,9.1667,35.8333,12.18,93,29,0.83,ET,1695353731
193,valle vista,33.7478,-116.8934,21.75,69,28,1.96,US,1695353732
194,quarai,-30.3875,-56.4514,21.11,91,87,2.6,BR,1695353732
195,pimenta bueno,-11.6725,-61.1936,28.47,45,53,1.26,BR,1695353733
196,lincheng,19.9078,109.6858,30.62,64,11,1.14,CN,1695353733
197,hauterive,46.0901,3.4459,12.42,87,67,2.75,FR,1695353733
198,chonchi,-42.6128,-73.8092,5.07,96,100,0.65,CL,1695353734
199,bardai,11.65,7.2333,22.49,78,90,3.03,NG,1695353734
200,korla,41.7597,86.1469,19.46,35,1,3.86,CN,1695353734
201,liman,48.9884,37.8023,15.1,61,25,3.11,UA,1695353735
202,tofol,5.3248,163.0078,31.88,74,75,1.54,FM,1695353735
203,manokwari,-0.8667,134.0833,27.99,74,87,2.6,ID,1695353735
204,salinopolis,-0.6136,-47.3561,26.24,87,12,4.31,BR,1695353736
205,nema,57.5067,50.5011,15.0,85,100,2.87,RU,1695353736
206,midvagur,62.0511,-7.1939,8.46,87,100,13.89,FO,1695353736
207,horta,38.5333,-28.6333,21.12,77,26,6.71,PT,1695353737
208,manaure,11.7751,-72.4445,29.22,74,6,5.36,CO,1695353737
209,pisco,-13.7,-76.2167,18.03,82,0,5.14,PE,1695353737
210,ryotsu-minato,38.0833,138.4333,23.07,67,99,1.72,JP,1695353737
211,kiunga,-6.1219,141.2906,31.63,51,99,2.01,PG,1695353738
212,bonham,33.5773,-96.1783,22.81,94,0,4.63,US,1695353738
213,bouake,7.6895,-5.0218,24.06,100,75,3.09,CI,1695353739
214,mount pearl,47.5166,-52.7813,9.52,95,100,10.29,CA,1695353739
215,keflavik,64.0049,-22.5624,3.24,70,0,3.09,IS,1695353739
216,at taj,24.2049,23.2857,22.17,37,0,3.89,LY,1695353740
217,saipan,15.1355,145.701,31.39,74,40,5.66,MP,1695353740
218,puerto ayora,-0.7393,-90.3518,24.19,92,21,2.24,EC,1695353581
219,nemuro,43.3236,145.575,14.64,90,95,4.01,JP,1695353740
220,gamba,-2.65,10.0,23.16,93,100,2.5,GA,1695353741
221,moranha,27.1833,94.9333,25.06,89,100,1.59,IN,1695353741
222,narasimharajapura,13.6167,75.5167,25.92,69,100,1.48,IN,1695353741
223,cockburn town,21.4612,-71.1419,29.03,75,36,5.57,TC,1695353620
224,kolonia town,6.964,158.206,31.06,74,100,5.14,FM,1695353742
225,vila franca do campo,37.7167,-25.4333,19.38,99,75,3.77,PT,1695353742
226,isafjordur,66.0755,-23.124,2.53,83,100,5.12,IS,1695353742
227,la passe,45.5549,-0.8967,16.66,73,91,10.94,FR,1695353742
228,pawai,24.2667,80.1667,28.81,74,100,1.99,IN,1695353486
229,bloemfontein,-29.1211,26.214,1.71,69,0,0.0,ZA,1695353743
230,enewetak,11.3474,162.3373,28.88,67,100,1.63,MH,1695353743
231,dikhil,11.5,42.1667,30.11,49,24,1.33,DJ,1695353743
232,iskateley,67.6803,53.1512,4.62,82,19,6.79,RU,1695353744
233,fuglafjordur,62.244,-6.814,8.26,93,100,15.55,FO,1695353744
234,kawalu,-7.3817,108.2082,30.33,40,97,3.23,ID,1695353744
235,remire-montjoly,4.9167,-52.2667,27.02,89,0,1.54,GF,1695353745
236,antsiranana,-12.2787,49.2917,24.42,69,40,3.09,MG,1695353745
237,atherton,53.5237,-2.4935,10.25,96,51,2.0,GB,1695353745
238,zyrya,40.3661,50.2917,21.05,64,1,0.78,AZ,1695353745
239,maych'ew,12.7875,39.5422,15.25,49,15,0.67,ET,1695353746
240,progreso,21.2833,-89.6667,29.06,81,4,4.56,MX,1695353746
241,deqen,29.9618,90.7188,13.49,56,90,2.47,CN,1695353746
242,taltal,-25.4,-70.4833,19.88,54,37,2.03,CL,1695353531
243,sonoita,31.85,-112.8333,25.73,30,100,2.64,MX,1695353747
244,medina,24.4686,39.6142,32.24,19,20,0.51,SA,1695353747
245,palmanova,45.9064,13.3119,20.27,94,75,2.06,IT,1695353747
246,bonthe,7.5264,-12.505,24.75,90,98,2.32,SL,1695353748
247,carbonear,47.7332,-53.2148,10.23,92,100,10.27,CA,1695353748
248,dryden,49.7833,-92.7503,15.16,82,100,4.12,CA,1695353748
249,floresta,-8.6011,-38.5686,21.83,72,36,5.93,BR,1695353748
250,micheweni,-4.9667,39.8333,25.3,74,56,4.01,TZ,1695353749
251,aghajari,30.7006,49.8315,21.12,28,0,1.03,IR,1695353749
252,dayton,39.7589,-84.1916,20.43,72,75,3.09,US,1695353732
253,bengkulu,-3.8004,102.2655,27.02,70,30,4.63,ID,1695353749
254,olyokminsk,60.3736,120.4264,9.97,70,100,5.24,RU,1695353750
255,acarau,-2.8856,-40.12,25.63,83,39,8.14,BR,1695353750
256,vorgashor,67.5833,63.95,1.96,91,99,8.8,RU,1695353750
257,touros,-5.1989,-35.4608,24.04,85,75,6.0,BR,1695353751
258,burang,30.25,81.1667,9.5,57,39,2.5,CN,1695353751
259,ola,59.5833,151.2833,11.75,71,100,4.62,RU,1695353751
260,rio pardo de minas,-15.6097,-42.5397,15.76,89,0,1.52,BR,1695353751
261,goure,13.9835,10.2704,30.23,23,100,2.54,NE,1695353751
262,ancud,-41.8697,-73.8203,6.88,90,100,2.68,CL,1695353752
263,port elizabeth,-33.918,25.5701,15.73,90,75,1.54,ZA,1695353752
264,greymouth,-42.4667,171.2,12.92,95,100,6.39,NZ,1695353752
265,penhalonga,-18.8911,32.6978,13.02,90,1,1.63,ZW,1695353658
266,tolanaro,-25.0319,46.9987,20.04,100,20,2.06,MG,1695353753
267,ilulissat,69.2167,-51.1,-2.99,63,0,2.57,GL,1695353753
268,hidden valley lake,38.808,-122.5583,14.38,67,0,1.1,US,1695353753
269,san fernando de apure,7.8878,-67.4724,25.18,84,3,1.0,VE,1695353753
270,zhalantun,48.0,122.7167,16.53,41,0,3.25,CN,1695353754
271,lycksele,64.5954,18.6735,14.13,94,75,5.14,SE,1695353754
272,lorengau,-2.0226,147.2712,29.24,71,91,2.71,PG,1695353754
273,chui,-33.6971,-53.4616,15.32,96,100,2.38,UY,1695353755
274,bankim,6.083,11.4905,19.13,98,100,0.39,CM,1695353755
275,qarauyl,48.9451,79.255,14.03,64,96,5.17,KZ,1695353755
276,nikolayevsk-on-amure,53.1406,140.73,10.63,44,39,4.92,RU,1695353755
277,punta arenas,-53.15,-70.9167,4.06,75,0,9.26,CL,1695353755
278,cururupu,-1.8283,-44.8683,25.26,85,90,2.73,BR,1695353756
279,fisterra,42.9049,-9.2629,16.53,75,7,5.93,ES,1695353756
280,flying fish cove,-10.4217,105.6791,26.82,78,75,4.12,CX,1695353756
281,atar,20.5169,-13.0499,32.62,26,22,4.88,MR,1695353756
282,mundri,-6.9558,111.71,33.27,30,31,3.83,ID,1695353757
283,ghormach,35.7306,63.7826,19.18,30,0,5.09,AF,1695353757
284,brookings,44.3114,-96.7984,18.99,73,100,2.57,US,1695353577
285,yunak,38.8142,31.7322,15.71,30,100,0.74,TR,1695353757
286,talcahuano,-36.7167,-73.1167,13.82,88,100,8.23,CL,1695353758
287,ciudad lazaro cardenas,17.9583,-102.2,27.19,78,0,1.82,MX,1695353758
288,caleta de carquin,-11.0925,-77.6267,18.05,87,28,4.41,PE,1695353758
289,hanak,41.2336,42.8472,11.27,77,15,0.22,TR,1695353758
290,kalmunai,7.4167,81.8167,29.48,68,21,3.12,LK,1695353759
291,cidreira,-30.1811,-50.2056,18.76,97,55,1.05,BR,1695353759
292,opuwo,-18.0607,13.84,19.14,30,6,0.83,NA,1695353759
293,gamay,12.3854,125.2979,28.22,75,100,3.21,PH,1695353759
294,ta`u,-14.2336,-169.5144,26.02,75,34,10.7,AS,1695353760
295,rwamagana,-1.9487,30.4347,17.69,90,78,0.24,RW,1695353760
296,kushiro,42.975,144.3747,19.53,82,75,2.06,JP,1695353760
297,diawara,15.022,-12.5437,27.92,70,31,3.7,SN,1695353760
298,fu'an,27.0892,119.6453,32.01,62,35,1.33,CN,1695353761
299,juba,4.8517,31.5825,21.22,90,48,0.6,SS,1695353761
300,armacao de buzios,-22.7469,-41.8817,22.03,87,1,9.72,BR,1695353761
301,olavarria,-36.8927,-60.3225,11.93,88,100,4.54,AR,1695353762
302,martapura,-3.4167,114.85,33.05,43,20,3.6,ID,1695353762
303,kingscliff,-28.2667,153.5667,23.18,82,100,5.14,AU,1695353762
304,tamanrasset,22.785,5.5228,20.95,19,0,1.54,DZ,1695353763
305,chinde,26.8418,88.0763,17.17,97,100,1.41,NP,1695353763
306,trairi,-3.2778,-39.2689,25.9,78,86,5.95,BR,1695353580
307,znamenskoye,57.1281,73.8282,13.56,65,86,5.48,RU,1695353764
308,usogorsk,63.4106,48.6872,5.13,82,87,0.69,RU,1695353765
309,firuzabad,28.8438,52.5707,28.35,15,5,1.71,IR,1695353765
310,dudinka,69.4058,86.1778,8.68,93,100,3.98,RU,1695353765
311,mae hong son,19.3003,97.9685,29.08,74,75,1.03,TH,1695353766
312,kaa-khem,51.6833,94.7333,15.11,57,100,1.69,RU,1695353766
313,port-vila,-17.7338,168.3219,26.78,69,40,5.66,VU,1695353766
314,nantucket,41.2835,-70.0995,17.03,95,0,2.06,US,1695353503
315,weno,7.4515,151.8468,29.07,76,100,7.03,FM,1695353767
316,arta,39.1606,20.9853,20.8,60,44,1.74,GR,1695353767
317,mohacs,45.9931,18.6831,15.7,80,13,2.84,HU,1695353767
318,yuktae-dong,40.0247,128.1597,20.34,51,0,2.89,KP,1695353768
319,paita,-5.0892,-81.1144,19.94,83,0,4.02,PE,1695353768
320,kapa'a,22.0752,-159.319,28.99,70,0,8.23,US,1695353768
321,betare oya,5.6,14.0833,17.87,97,95,0.38,CM,1695353769
322,labrador city,52.9463,-66.9114,-1.05,100,0,2.06,CA,1695353769
323,malango,-2.9627,119.9001,28.21,53,68,2.4,ID,1695353769
324,spring creek,40.7266,-115.5859,11.83,31,67,0.13,US,1695353600
325,papao,-17.75,-149.55,23.82,83,93,5.82,PF,1695353770
326,sampit,-2.5333,112.95,34.26,37,61,2.37,ID,1695353770
327,pemangkat,1.1667,108.9667,29.98,64,100,4.0,ID,1695353770
328,imbituba,-28.24,-48.6703,23.28,91,78,5.23,BR,1695353770
329,salekhard,66.53,66.6019,3.9,87,100,8.08,RU,1695353771
330,vadso,70.0744,29.7487,4.09,87,75,9.77,NO,1695353771
331,ritchie,-29.038,24.6028,6.56,43,0,1.51,ZA,1695353771
332,ketchikan,55.3422,-131.6461,13.26,100,100,7.2,US,1695353772
333,acapulco de juarez,16.8634,-99.8901,28.9,79,40,1.54,MX,1695353728
334,minas de marcona,-15.2119,-75.1103,12.7,88,39,4.56,PE,1695353772
335,zaozersk,69.4005,32.4476,2.25,98,100,9.29,RU,1695353772
336,broken hill,-31.95,141.4333,20.1,21,0,4.87,AU,1695353483
337,nar'yan-mar,67.6713,53.087,4.66,82,15,6.83,RU,1695353773
338,lata,40.1629,-8.3327,13.93,94,84,0.25,PT,1695353773
339,cabo san lucas,22.8909,-109.9124,30.42,60,0,5.14,MX,1695353273
340,levuka,50.1834,-105.4011,14.9,39,78,2.96,CA,1695353773
341,aransas pass,27.9095,-97.15,29.99,80,0,5.66,US,1695353774
342,dunedin,-45.8742,170.5036,8.78,71,100,2.5,NZ,1695353774
343,la malbaie,47.6575,-70.1559,11.01,85,13,1.66,CA,1695353755
344,port alberni,49.2413,-124.8028,16.55,60,1,0.89,CA,1695353775
345,tannum sands,-23.9504,151.3693,26.94,50,0,9.77,AU,1695353775
346,sambrial,32.4745,74.3521,27.97,74,40,2.06,PK,1695353775
347,nizao,18.25,-70.2,28.59,79,76,2.99,DO,1695353538
348,coeur d'alene,47.6777,-116.7805,17.25,51,99,1.54,US,1695353559
349,pacocha,-17.5833,-71.3333,17.23,85,64,1.48,PE,1695353776
350,rakops,-21.0167,24.3333,21.71,31,2,4.13,BW,1695353776
351,kavaratti,10.5669,72.642,27.15,77,100,7.33,IN,1695353777
352,trzemeszno,52.5614,17.8231,22.14,57,25,6.3,PL,1695353777
353,chernyshevskiy,63.0128,112.4714,5.7,94,100,4.59,RU,1695353777
354,ugoofaaru,5.6667,73.0,28.46,72,100,4.14,MV,1695353777
355,navan,53.6528,-6.6814,10.38,94,99,4.55,IE,1695353778
356,harstad,68.799,16.5293,8.68,96,100,9.39,NO,1695353778
357,kingsville,27.5159,-97.8561,29.98,78,40,3.13,US,1695353778
358,ambodifotatra,-16.9833,49.85,24.03,94,75,3.09,MG,1695353778
359,luganville,-15.5333,167.1667,26.63,75,81,5.11,VU,1695353779
360,kruisfontein,-34.0033,24.7314,13.82,89,86,1.9,ZA,1695353779
361,nuriootpa,-34.4833,139.0,19.99,30,2,3.83,AU,1695353779
362,uyuni,-20.4597,-66.825,7.46,25,0,2.39,BO,1695353780
363,hede,33.7681,120.2517,24.3,59,48,4.58,CN,1695353780
364,ulsteinvik,62.3432,5.8487,13.75,79,100,2.68,NO,1695353780
365,hamilton,39.1834,-84.5333,21.66,74,82,1.62,US,1695353485
366,canico,32.6333,-16.85,23.89,83,20,1.54,PT,1695353781
367,necochea,-38.5473,-58.7368,9.13,83,100,5.68,AR,1695353781
368,kudymkar,59.0173,54.656,13.75,91,100,3.51,RU,1695353781
369,rio gallegos,-51.6226,-69.2181,1.03,80,0,4.12,AR,1695353689
370,el granada,37.5027,-122.4694,17.97,81,20,3.6,US,1695353782
371,qamdo,31.1667,97.2333,12.33,46,47,1.11,CN,1695353782
372,warrnambool,-38.3833,142.4833,17.97,59,15,3.59,AU,1695353782
373,macas,-2.3167,-78.1167,18.51,96,15,1.61,EC,1695353783
374,dhidhdhoo,6.8833,73.1,27.82,75,100,5.49,MV,1695353783
375,somerset east,-32.7217,25.588,9.5,80,1,1.68,ZA,1695353783
376,kayangel,8.0823,134.7173,28.57,77,71,7.48,PW,1695353784
377,bay city,43.5945,-83.8889,19.99,83,0,0.0,US,1695353784
378,polyarnyy,69.1989,33.4478,3.13,95,100,10.13,RU,1695353784
379,sinop,41.7711,34.8709,15.13,76,81,2.06,TR,1695353784
380,howrah,22.5892,88.3103,28.0,89,75,6.17,IN,1695353785
381,constantia,44.1833,28.65,18.38,71,63,5.68,RO,1695353785
382,mendoza,-32.8908,-68.8272,16.74,55,0,2.57,AR,1695353785
383,kuta,-8.7233,115.1723,27.97,83,40,6.71,ID,1695353683
384,altai,46.3722,96.2583,4.73,94,100,2.87,MN,1695353786
385,road town,18.4167,-64.6167,28.05,76,42,7.83,VG,1695353728
386,antalaha,-14.9003,50.2788,23.46,79,46,2.42,MG,1695353786
387,dolores,-36.3132,-57.6792,13.07,87,100,3.89,AR,1695353786
388,port alfred,-33.5906,26.891,15.45,85,12,3.84,ZA,1695353787
389,pundong,-7.9522,110.3486,28.95,53,19,6.45,ID,1695353787
390,thinadhoo,0.5333,72.9333,28.04,75,80,2.81,MV,1695353787
391,sodankyla,67.4167,26.6,12.55,98,100,5.33,FI,1695353787
392,natal,-5.795,-35.2094,23.36,94,40,4.12,BR,1695353626
393,mana,5.6592,-53.7767,25.73,92,4,4.81,GF,1695353788
394,callao,-12.0667,-77.15,19.29,77,100,3.09,PE,1695353550
395,atuntaqui,0.3333,-78.2167,12.68,84,92,2.17,EC,1695353788
396,kristiansund,63.1115,7.732,11.36,93,100,0.0,NO,1695353789
397,paradip garh,20.3167,86.6167,29.87,71,100,4.2,IN,1695353789
398,kapuskasing,49.4169,-82.4331,17.05,94,40,1.54,CA,1695353789
399,nampula,-15.1165,39.2666,19.97,100,75,1.03,MZ,1695353789
400,bikin,46.8161,134.26,15.71,48,66,5.0,RU,1695353790
401,xilin hot,43.9667,116.0333,17.25,32,4,3.1,CN,1695353790
402,tiznit,29.5833,-9.5,16.65,86,31,0.85,MA,1695353790
403,mangai,-4.05,19.5333,21.82,94,96,0.94,CD,1695353791
404,tura,25.5198,90.2201,26.53,85,99,2.02,IN,1695353791
405,kirensk,57.7853,108.1119,16.1,58,85,5.16,RU,1695353791
406,fort bragg,35.139,-79.006,21.0,79,0,2.06,US,1695353745
407,pastos bons,-6.6017,-44.0767,22.66,46,28,1.77,BR,1695353792
408,as sulayyil,20.4607,45.5779,29.14,31,98,1.59,SA,1695353792
409,laguna,38.421,-121.4238,21.36,62,0,5.66,US,1695353792
410,xingcheng,40.6167,120.7167,22.83,56,53,4.9,CN,1695353792
411,crane,31.3974,-102.3501,28.16,38,61,8.98,US,1695353792
412,alaghsas,17.0187,8.0168,30.79,12,2,4.17,NE,1695353793
413,khandyga,62.6667,135.6,2.46,77,60,2.53,RU,1695353793
414,thabazimbi,-24.5917,27.4116,19.05,45,0,1.45,ZA,1695353793
415,pacific grove,36.6177,-121.9166,17.23,82,0,4.02,US,1695353509
416,gadzhiyevo,69.2551,33.3362,2.9,95,100,9.93,RU,1695353794
417,verdal,63.7933,11.4817,13.02,94,100,0.94,NO,1695353794
418,ubari,26.5921,12.7805,23.92,22,7,3.25,LY,1695353794
419,ak'ordat,15.5486,37.8867,28.01,48,75,1.17,ER,1695353794
420,newnham,-41.3833,147.1333,14.92,44,11,5.66,AU,1695353795
421,lompoc,34.6391,-120.4579,17.1,81,0,0.0,US,1695353795
422,el sauzal de rodriguez,31.9,-116.6833,19.12,77,86,1.8,MX,1695353795
423,vernon,50.2581,-119.2691,15.74,44,4,2.06,CA,1695353760
424,missoula,47.0166,-113.8009,5.22,85,100,1.18,US,1695353796
425,sinabang,2.4803,96.3801,26.46,83,100,2.32,ID,1695353796
426,ondjiva,-17.0667,15.7333,23.02,35,96,1.03,AO,1695353796
427,page,36.9147,-111.4558,25.88,19,0,6.26,US,1695353797
428,mermoz boabab,14.7065,-17.4758,26.31,76,83,1.66,SN,1695353797
429,balqash,46.8481,74.995,13.33,76,0,6.0,KZ,1695353797
430,carboneras,37.0015,-1.9213,20.28,59,100,1.12,ES,1695353797
431,niquero,20.0431,-77.5828,27.45,79,55,2.98,CU,1695353798
432,campoverde,-8.4753,-74.8058,26.83,58,3,0.69,PE,1695353798
433,aykhal,66.0,111.5,2.2,98,100,7.17,RU,1695353798
434,cove,7.221,2.3402,22.76,97,100,2.03,BJ,1695353798
435,cidade velha,14.9167,-23.6167,26.26,94,40,3.09,CV,1695353799
436,prado,-17.3411,-39.2208,22.32,78,6,3.03,BR,1695353799
437,harqalah,36.0303,10.509,25.92,53,0,3.09,TN,1695353799
438,saint-jean-de-monts,46.7833,-2.0667,14.61,74,83,9.18,FR,1695353799
439,chulakkurgan,43.765,69.1814,16.83,46,11,3.24,KZ,1695353800
440,kormilovka,55.0026,74.1028,14.27,52,15,8.13,RU,1695353800
441,el colorado,-26.3081,-59.3729,30.28,36,50,4.82,AR,1695353800
442,taghazout,30.5426,-9.7112,18.43,85,0,0.85,MA,1695353800
443,tionk essil,12.7856,-16.5217,26.98,88,99,1.9,SN,1695353800
444,saudarkrokur,65.7461,-19.6394,2.18,82,33,1.91,IS,1695353801
445,cuatro cienegas de carranza,26.9833,-102.0833,28.31,39,1,2.35,MX,1695353801
446,nuku'alofa,-21.1333,-175.2,21.94,72,87,14.42,TO,1695353801
447,khovd,48.0056,91.6419,12.7,47,6,1.12,MN,1695353802
448,ambon,-3.6954,128.1814,29.08,74,40,4.12,ID,1695353802
449,cabedelo,-6.9811,-34.8339,23.37,83,51,4.87,BR,1695353785
450,bossangoa,6.4926,17.4552,20.36,97,81,0.63,CF,1695353802
451,mirny,62.5353,113.9611,6.8,81,100,7.15,RU,1695353803
452,maicanesti,45.5,27.5,17.44,73,100,3.2,RO,1695353803
453,qom,34.6401,50.8764,22.98,25,0,2.41,IR,1695353803
454,huai khot,15.2909,99.6166,31.03,64,57,1.67,TH,1695353803
455,winneba,5.3511,-0.6231,23.96,95,99,3.42,GH,1695353804
456,santa vitoria do palmar,-33.5189,-53.3681,15.32,97,100,2.32,BR,1695353804
457,argo,37.6333,22.7333,23.13,57,2,1.05,GR,1695353804
458,calvinia,-31.4707,19.776,9.28,59,0,0.95,ZA,1695353805
459,tupiza,-21.45,-65.7167,12.78,43,2,1.9,BO,1695353805
460,marsh harbour,26.5412,-77.0636,27.64,70,34,4.33,BS,1695353805
461,sitka,57.0531,-135.33,11.94,94,100,2.06,US,1695353805
462,tokmak,47.2514,35.7058,17.14,69,10,4.12,UA,1695353805
463,hebi,35.8992,114.1925,25.53,50,51,4.15,CN,1695353806
464,embi,48.8264,58.1442,15.59,44,0,0.87,KZ,1695353806
465,trashi yangtse,27.6116,91.498,18.04,98,100,0.58,BT,1695353806
466,norrtalje,59.758,18.705,16.68,92,53,4.63,SE,1695353806
467,kajaani,64.2273,27.7285,15.03,94,20,4.63,FI,1695353807
468,namibe,-15.1961,12.1522,17.91,96,17,1.77,AO,1695353807
469,nova sintra,14.8667,-24.7167,24.23,83,43,4.15,CV,1695353807
470,brazil,39.5237,-87.125,20.33,90,0,0.0,US,1695353807
471,mpika,-11.8343,31.4529,15.65,64,39,1.34,ZM,1695353808
472,sabratah,32.7933,12.4885,28.13,36,3,4.7,LY,1695353808
473,colonia,50.9333,6.95,13.75,87,0,3.09,DE,1695353688
474,basco,20.4487,121.9702,29.3,78,53,7.19,PH,1695353808
475,tsiombe,-25.3,45.4833,21.11,92,29,3.58,MG,1695353809
476,hadibu,12.65,54.0333,26.98,79,36,5.38,YE,1695353809
477,murang'a,-0.7167,37.15,17.69,84,100,1.83,KE,1695353809
478,antofagasta,-23.65,-70.4,15.6,65,8,2.15,CL,1695353810
479,chatham,51.3789,0.5279,11.92,76,72,2.83,GB,1695353607
480,padang,-0.9492,100.3543,28.03,76,74,2.77,ID,1695353810
481,warrenville,41.8178,-88.1734,21.0,92,100,2.06,US,1695353583
482,palmer,42.1584,-72.3287,13.99,84,0,1.54,US,1695353811
483,nogliki,51.8333,143.1667,7.69,72,99,2.37,RU,1695353811
484,wisconsin rapids,44.3836,-89.8174,20.1,71,0,2.57,US,1695353756
485,oriximina,-1.7656,-55.8661,24.76,81,42,1.69,BR,1695353811
486,tarauaca,-8.1614,-70.7656,24.53,76,8,0.26,BR,1695353811
487,fraijanes,14.4653,-90.4408,19.04,74,100,4.12,GT,1695353812
488,enriquillo,17.9,-71.2333,26.95,82,81,3.12,DO,1695353812
489,salmon arm,50.6998,-119.3024,11.62,71,3,1.03,CA,1695353812
490,russellville,35.2784,-93.1338,27.08,57,100,0.0,US,1695353812
491,okoneshnikovo,54.8377,75.0834,14.62,47,48,7.89,RU,1695353813
492,kamloops,50.6665,-120.3192,13.55,58,0,0.89,CA,1695353581
493,tyukhtet,56.5389,89.3011,16.16,60,81,4.83,RU,1695353813
494,sao joao dos patos,-6.495,-43.7022,22.87,48,58,1.54,BR,1695353813
495,yazoo city,32.8551,-90.4056,24.39,53,76,3.29,US,1695353814
496,kochenevo,55.0218,82.202,13.66,49,73,6.68,RU,1695353814
497,shuangjiang,26.1547,109.7138,23.94,73,95,1.69,CN,1695353814
498,santana,-0.0583,-51.1817,28.1,83,40,2.06,BR,1695353814
499,axim,4.8699,-2.2405,24.26,93,100,2.14,GH,1695353814
500,hammerfest,70.6634,23.6821,3.25,87,100,9.26,NO,1695353815
501,lazaro cardenas,17.9583,-102.2,27.19,78,0,1.82,MX,1695353815
502,mugia,43.1041,-9.2179,16.62,75,16,6.16,ES,1695353815
503,new norfolk,-42.7826,147.0587,16.07,55,84,3.07,AU,1695353816
504,sur,22.5667,59.5289,31.6,54,99,1.43,OM,1695353816
505,bikenibeu village,1.3673,173.1241,31.98,66,40,4.12,KI,1695353816
506,amos,48.5669,-78.1162,10.83,78,4,2.44,CA,1695353568
507,mahibadhoo,3.7833,72.9667,28.34,71,94,3.11,MV,1695353816
508,gazojak,41.1875,61.4036,19.91,34,0,4.28,TM,1695353817
509,chifeng,42.2683,118.9636,20.59,38,46,6.24,CN,1695353817
510,resplendor,-19.3256,-41.2553,19.96,85,8,1.06,BR,1695353817
511,ilhabela,-23.7781,-45.3581,21.77,86,3,0.41,BR,1695353817
512,tamazulapam villa del progreso,17.6806,-97.5689,14.96,89,3,2.71,MX,1695353818
513,mogadishu,2.0371,45.3438,26.05,86,72,4.7,SO,1695353818
514,severo-yeniseyskiy,60.3725,93.0408,12.08,64,39,6.58,RU,1695353818
515,codrington,-38.2667,141.9667,13.51,58,36,4.48,AU,1695353818
516,tabas,33.5959,56.9244,26.12,18,0,2.06,IR,1695353818
517,el tigre,8.8875,-64.2454,22.88,86,97,2.29,VE,1695353694
518,la sarre,48.8002,-79.1996,11.85,89,6,2.85,CA,1695353781
519,al kharijah,25.4514,30.5464,23.51,42,0,3.31,EG,1695353819
520,sambava,-14.2667,50.1667,23.11,85,86,3.77,MG,1695353819
521,souillac,-20.5167,57.5167,23.21,83,40,3.6,MU,1695353820
522,puerto la cruz,10.2167,-64.6167,24.76,79,100,1.55,VE,1695353682
523,abadan,30.3392,48.3043,24.97,25,0,0.0,IR,1695353820
524,portland,45.5234,-122.6762,19.96,56,17,0.89,US,1695353255
525,walvis bay,-22.9575,14.5053,11.72,93,100,5.14,NA,1695353821
526,borkum,53.5809,6.6915,14.97,86,98,2.94,DE,1695353821
527,idri,27.5,13.2667,22.58,27,6,3.52,LY,1695353821
528,akkol',48.7833,53.2,17.31,44,15,2.66,KZ,1695353821
529,tual,-5.6667,132.75,25.86,81,28,5.21,ID,1695353822
530,luderitz,-26.6481,15.1594,14.09,53,0,5.95,NA,1695353822
531,puerto aysen,-45.4,-72.7,-0.97,97,37,0.34,CL,1695353538
532,sao joao da barra,-21.6403,-41.0511,21.82,84,4,9.33,BR,1695353823
533,severnoye,56.3491,78.3619,13.64,53,53,7.09,RU,1695353823
534,nyurba,63.2842,118.3319,8.68,57,78,5.07,RU,1695353823
535,nabire,-3.3667,135.4833,27.33,83,97,0.67,ID,1695353824
536,hasaki,35.7333,140.8333,25.22,86,100,7.68,JP,1695353824
537,esmeralda,21.8525,-78.1169,25.25,86,10,2.17,CU,1695353824
538,buta,2.7858,24.73,20.17,99,100,0.44,CD,1695353825
539,geraldton,-28.7667,114.6,23.23,64,100,5.66,AU,1695353825
540,puerto lempira,15.2667,-83.7667,27.05,85,21,2.81,HN,1695353825
541,dondo,-19.6094,34.7431,21.73,89,61,2.05,MZ,1695353826
542,carolina beach,34.0352,-77.8936,22.25,76,100,7.48,US,1695353826
543,villa gesell,-37.2639,-56.973,11.14,96,100,6.22,AR,1695353826
544,kailua-kona,19.6406,-155.9956,27.5,65,75,6.69,US,1695353827
545,liwonde,-15.0506,35.2035,22.34,64,0,1.26,MW,1695353827
546,choibalsan,48.0667,114.5,18.36,28,0,3.31,MN,1695353827
547,glendale,33.5387,-112.186,32.62,23,40,3.09,US,1695353679
548,paterna de rivera,36.5211,-5.8494,18.44,78,100,2.94,ES,1695353828
549,luxeuil-les-bains,47.8171,6.365,13.79,88,75,2.57,FR,1695353828
550,carnarvon,-24.8667,113.6333,21.88,64,0,5.85,AU,1695353828
551,zyryanovsk,49.7386,84.2719,11.89,84,100,0.66,KZ,1695353829
552,nellore,14.4333,79.9667,29.92,62,100,3.89,IN,1695353829
553,say,13.1007,2.3689,28.31,57,100,3.66,NE,1695353829
554,darwin,-12.4611,130.8418,33.27,53,20,4.63,AU,1695353829
555,taber,49.8167,-112.1518,13.91,52,61,2.57,CA,1695353830
556,ilica,39.9463,41.1091,2.96,75,0,0.51,TR,1695353830
557,kerikeri,-35.2268,173.9474,16.46,86,77,4.36,NZ,1695353830
558,shinkafi,13.0753,6.5105,26.41,64,98,3.04,NG,1695353830
559,nejo,9.5,35.5,14.26,89,40,0.19,ET,1695353831
560,island harbour,50.724,-1.2758,10.52,94,49,0.89,GB,1695353831
561,crieff,56.3727,-3.8389,9.52,95,99,1.71,GB,1695353832
562,beyneu,45.3167,55.2,18.36,50,1,2.83,KZ,1695353832
563,neelankarai,12.9455,80.2575,30.58,84,20,3.6,IN,1695353832
564,preobrazheniye,42.9019,133.9064,20.82,55,0,6.63,RU,1695353833
565,pokaran,26.9167,71.9167,30.95,57,34,4.3,IN,1695353833
566,la villa del rosario,10.3258,-72.3134,25.36,87,34,3.45,VE,1695353834
567,belmonte,-15.8631,-38.8828,21.92,86,12,3.02,BR,1695353834
568,jiutai,44.1525,125.8328,20.19,57,80,4.89,CN,1695353834
569,gornopravdinsk,60.05,69.9,8.29,88,100,6.87,RU,1695353834
570,yeppoon,-23.1333,150.7333,27.88,73,0,7.59,AU,1695353835
571,wentworth falls,-33.7167,150.3833,13.56,55,75,2.26,AU,1695353835
572,vangviang,18.9333,102.45,33.61,51,64,1.17,LA,1695353835
573,pergamino,-33.89,-60.5736,17.12,94,1,3.16,AR,1695353835
574,las heras,-46.5419,-68.9359,4.55,49,2,2.9,AR,1695353836
575,lagoa vermelha,-28.2086,-51.5258,17.39,93,12,1.34,BR,1695353654
576,altoona,40.5187,-78.3947,15.21,83,94,0.71,US,1695353836
577,verkhnevilyuysk,63.4453,120.3167,8.69,55,49,5.04,RU,1695353837
578,pimentel,-6.8367,-79.9342,20.16,77,0,7.2,PE,1695353837
579,nagqu,31.5,92.0,9.86,65,75,5.1,CN,1695353837
580,ha'il,27.5219,41.6907,27.01,19,0,0.0,SA,1695353838
581,paramonga,-10.6667,-77.8333,18.01,89,47,4.16,PE,1695353838
582,olinda,-8.0089,-34.8553,25.85,78,75,5.66,BR,1695353838
