City_ID,City,Lat,Lng,Max Temp,Humidity,Cloudiness,Wind Speed,Country,Date
0,ushuaia,-54.8,-68.3,1.81,75,40,6.69,AR,1695785487
1,puerto natales,-51.7236,-72.4875,2.85,97,100,1.09,CL,1695785557
2,port-aux-francais,-49.35,70.2167,1.75,79,56,18.07,TF,1695785557
3,waitangi,-43.9535,-176.5597,14.34,91,20,1.34,NZ,1695785558
4,blackmans bay,-43.0167,147.3167,18.07,44,88,4.14,AU,1695785558
5,qaqortoq,60.7167,-46.0333,2.37,58,4,2.11,GL,1695785558
6,kidal,18.4411,1.4078,31.54,12,0,3.88,ML,1695785559
7,tsetserleg,47.475,101.4542,5.38,29,83,2.2,MN,1695785559
8,grytviken,-54.2811,-36.5092,-2.34,79,36,4.5,GS,1695785559
9,dergachi,51.2328,48.7659,14.58,62,19,3.04,RU,1695785559
10,badger,64.8,-147.5333,5.2,75,100,3.09,US,1695785560
11,atafu village,-8.5421,-172.5159,28.27,72,45,0.73,TK,1695785560
12,machico,32.7,-16.7667,22.62,80,20,1.03,PT,1695785560
13,lompoc,34.6391,-120.4579,19.41,83,0,14.31,US,1695785349
14,avarua,-21.2078,-159.775,24.03,69,40,7.2,CK,1695785560
15,bredasdorp,-34.5322,20.0403,9.87,88,0,1.54,ZA,1695785561
16,longyearbyen,78.2186,15.6401,-9.09,79,20,4.63,SJ,1695785561
17,papatowai,-46.5619,169.4708,8.34,89,100,4.66,NZ,1695785561
18,hamilton,39.1834,-84.5333,18.82,94,100,7.2,US,1695785430
19,iqaluit,63.7506,-68.5145,5.85,70,100,10.29,CA,1695785562
20,suzhou,31.3114,120.6181,29.19,66,31,1.21,CN,1695785562
21,puerto ayora,-0.7393,-90.3518,24.19,95,73,3.58,EC,1695785388
22,olonkinbyen,70.9221,-8.7187,3.14,97,100,9.77,SJ,1695785562
23,mount pearl,47.5166,-52.7813,8.41,83,100,6.69,CA,1695785563
24,invercargill,-46.4,168.35,11.12,83,100,3.58,NZ,1695785487
25,krasnoarmeyskoye,52.7182,50.0322,13.2,67,42,1.65,RU,1695785563
26,west island,-12.1568,96.8225,26.99,83,40,8.75,CC,1695785563
27,mazatlan,23.2167,-106.4167,27.73,75,75,3.6,MX,1695785352
28,caibarien,22.5206,-79.4669,23.62,87,100,4.79,CU,1695785564
29,ribeira grande,38.5167,-28.7,18.76,86,99,1.79,PT,1695785564
30,hermanus,-34.4187,19.2345,11.63,79,1,5.56,ZA,1695785564
31,san patricio,28.017,-97.5169,29.35,66,43,3.31,US,1695785565
32,talnakh,69.4865,88.3972,0.67,84,98,7.04,RU,1695785565
33,bethel,41.3712,-73.414,11.47,83,0,0.0,US,1695785454
34,pisco,-13.7,-76.2167,18.9,82,4,4.12,PE,1695785565
35,college,64.8569,-147.8028,5.25,73,75,3.09,US,1695785566
36,sohbatpur,28.5202,68.5434,34.91,26,0,0.57,PK,1695785566
37,tiksi,71.6872,128.8694,0.14,60,39,11.11,RU,1695785566
38,antofagasta,-23.65,-70.4,15.6,77,41,4.64,CL,1695785566
39,kuqa,41.7278,82.9364,20.16,29,0,0.85,CN,1695785567
40,adamstown,-25.066,-130.1015,20.83,72,54,5.81,PN,1695785567
41,anadyr,64.75,177.4833,6.28,70,40,2.0,RU,1695785567
42,ahiri,19.4,80.0167,29.24,78,65,0.92,IN,1695785567
43,villaviciosa,43.4813,-5.4357,17.87,95,98,1.79,ES,1695785568
44,krasnyy kholm,58.0607,37.1203,6.75,92,36,2.16,RU,1695785568
45,glendive,47.1053,-104.7125,19.79,68,0,5.66,US,1695785335
46,enewetak,11.3474,162.3373,29.15,72,100,6.02,MH,1695785568
47,takoradi,4.8845,-1.7554,24.34,92,22,2.1,GH,1695785569
48,ola,59.5833,151.2833,12.86,61,23,2.81,RU,1695785569
49,tirumullaivasal,11.2333,79.8333,30.37,62,98,4.55,IN,1695785569
50,katsuren-haebaru,26.3369,127.8719,32.43,65,0,3.09,JP,1695785569
51,stanley,54.868,-1.6985,10.4,93,97,1.78,GB,1695785429
52,weno,7.4515,151.8468,31.97,74,75,2.06,FM,1695785570
53,elliot lake,46.3834,-82.6331,12.62,88,74,2.01,CA,1695785570
54,chui,-33.6971,-53.4616,10.38,95,100,5.68,UY,1695785570
55,page,36.9147,-111.4558,24.5,22,0,2.57,US,1695785570
56,lodeynoye pole,60.726,33.5531,9.25,99,36,2.01,RU,1695785571
57,six-fours-les-plages,43.0938,5.84,21.36,47,61,1.3,FR,1695785571
58,nizhniy kuranakh,58.8353,125.4869,11.68,55,1,1.87,RU,1695785571
59,guanica,17.9716,-66.908,27.88,68,1,1.97,PR,1695785571
60,ilulissat,69.2167,-51.1,0.01,55,100,10.29,GL,1695785572
61,kingaroy,-26.5333,151.8333,30.01,18,1,1.65,AU,1695785572
62,tuguegarao,17.6131,121.7269,31.37,66,48,0.41,PH,1695785572
63,mitsamiouli,-11.3847,43.2844,25.16,73,20,9.77,KM,1695785572
64,klyuchi,52.2667,79.1667,10.04,42,2,4.6,RU,1695785573
65,newnham,-41.3833,147.1333,18.81,55,40,8.75,AU,1695785573
66,luanda,-8.8368,13.2343,22.0,88,100,2.06,AO,1695785388
67,puerto baquerizo moreno,-0.9,-89.6,23.38,84,58,6.58,EC,1695785573
68,leava,-14.3,-178.1667,27.52,77,93,6.34,WF,1695785573
69,laguna,38.421,-121.4238,22.95,57,0,3.6,US,1695785394
70,susuman,62.7833,148.1667,4.44,63,83,1.82,RU,1695785574
71,thompson,55.7435,-97.8558,17.09,72,0,1.54,CA,1695785574
72,torquay,50.4638,-3.5143,16.07,94,100,1.34,GB,1695785518
73,dalbandin,28.8947,64.4101,24.35,11,0,3.5,PK,1695785575
74,kailua-kona,19.6406,-155.9956,27.98,71,75,3.09,US,1695785372
75,filiatra,37.15,21.5833,20.39,68,77,1.48,GR,1695785575
76,bowen,-20.0167,148.2333,24.03,57,5,8.47,AU,1695785575
77,linton,39.0348,-87.1658,19.38,86,51,2.7,US,1695785474
78,yellowknife,62.456,-114.3525,10.23,100,100,2.57,CA,1695785576
79,loppi,60.7167,24.45,13.04,96,99,2.09,FI,1695785576
80,greenville,35.6127,-77.3663,19.09,96,100,3.09,US,1695785231
81,jalai nur,49.45,117.7,13.71,42,28,4.32,CN,1695785576
82,gamba,-2.65,10.0,24.02,89,98,2.95,GA,1695785577
83,vila velha,-20.3297,-40.2925,24.97,88,20,6.69,BR,1695785577
84,la passe,45.5549,-0.8967,14.43,89,98,3.68,FR,1695785577
85,aswan,24.0934,32.907,28.61,21,0,4.63,EG,1695785577
86,probolinggo,-7.7543,113.2159,31.3,46,5,4.71,ID,1695785578
87,mar del plata,-38.0023,-57.5575,8.94,89,0,2.06,AR,1695785578
88,nishinoomote,30.7333,131.0,29.31,78,20,2.06,JP,1695785578
89,hirara,24.8,125.2833,30.92,79,40,6.17,JP,1695785578
90,pak phanang,8.3511,100.202,28.01,79,99,4.73,TH,1695785579
91,san antonio de pale,-1.4014,5.6325,24.1,86,94,5.28,GQ,1695785579
92,saudarkrokur,65.7461,-19.6394,5.54,92,98,2.68,IS,1695785579
93,tolanaro,-25.0319,46.9987,22.04,73,20,3.09,MG,1695785579
94,aras-asan,8.8908,126.3033,29.72,69,39,1.52,PH,1695785579
95,howrah,22.5892,88.3103,31.0,84,40,0.0,IN,1695785580
96,varna,43.2167,27.9167,19.08,82,52,5.14,BG,1695785580
97,howard springs,-12.497,131.047,32.12,20,27,3.09,AU,1695785580
98,constantia,44.1833,28.65,18.38,71,7,9.29,RO,1695785580
99,meadville,41.6414,-80.1515,14.58,88,100,3.13,US,1695785341
100,uturoa,-16.7333,-151.4333,25.59,78,33,9.42,PF,1695785581
101,lebu,-37.6167,-73.65,7.31,79,12,5.52,CL,1695785581
102,fort mcmurray,56.7268,-111.381,15.77,63,100,2.06,CA,1695785414
103,chonchi,-42.6128,-73.8092,8.4,97,100,3.04,CL,1695785582
104,alaior,39.9303,4.1404,16.86,82,0,2.06,ES,1695785582
105,kodiak,57.79,-152.4072,9.73,46,75,3.09,US,1695785582
106,ust'-ilimsk,58.0006,102.6619,11.52,47,62,1.22,RU,1695785583
107,vuktyl,63.8567,57.3094,9.87,95,100,3.46,RU,1695785583
108,mossel bay,-34.1831,22.146,12.96,73,49,1.64,ZA,1695785583
109,cold lake,54.4502,-110.2017,14.97,67,40,2.06,CA,1695785466
110,edinburgh of the seven seas,-37.0676,-12.3116,12.54,76,18,10.56,SH,1695785584
111,kingston,17.997,-76.7936,29.53,84,20,3.09,JM,1695785335
112,amursk,50.2261,136.8994,18.69,65,77,3.86,RU,1695785584
113,tromso,69.6496,18.957,12.01,82,75,6.69,NO,1695785572
114,ancud,-41.8697,-73.8203,9.17,89,100,7.98,CL,1695785585
115,qulsary,46.9531,54.0198,19.91,38,15,3.46,KZ,1695785585
116,ust'-ordynskiy,52.805,104.7508,6.95,89,100,3.49,RU,1695785585
117,albany,42.6001,-73.9662,11.13,92,98,0.45,US,1695785289
118,namibe,-15.1961,12.1522,17.59,92,13,2.19,AO,1695785586
119,margaret river,-33.95,115.0667,22.88,51,0,5.06,AU,1695785586
120,vila franca do campo,37.7167,-25.4333,22.23,92,99,2.02,PT,1695785586
121,alice springs,-23.7,133.8833,31.75,13,5,3.09,AU,1695785586
122,bikenibeu village,1.3673,173.1241,30.98,70,40,3.09,KI,1695785587
123,isafjordur,66.0755,-23.124,4.54,98,100,13.87,IS,1695785587
124,livingstonia,-10.606,34.1063,17.21,72,1,0.69,MW,1695785587
125,lihue,21.9789,-159.3672,29.58,68,40,8.75,US,1695785471
126,la paz,-16.5,-68.15,11.99,57,20,1.34,BO,1695785332
127,winnemucca,40.973,-117.7357,18.03,27,0,3.6,US,1695785588
128,fale old settlement,-9.3852,-171.2468,28.39,77,50,5.97,TK,1695785588
129,ormara,25.2088,64.6357,27.2,65,4,1.83,PK,1695785588
130,georgetown,5.4112,100.3354,32.19,75,20,4.63,MY,1695785589
131,erndtebruck,50.9833,8.2667,11.75,100,50,0.85,DE,1695785589
132,maxixe,-23.8597,35.3472,22.9,88,75,0.0,MZ,1695785589
133,buckeye,33.3703,-112.5838,35.13,15,0,3.6,US,1695785556
134,pangody,65.85,74.4859,2.6,66,94,0.87,RU,1695785590
135,aasiaat,68.7098,-52.8699,-4.06,76,100,4.95,GL,1695785590
136,holualoa,19.6228,-155.9522,25.91,71,75,3.09,US,1695785590
137,salekhard,66.53,66.6019,5.41,94,100,1.21,RU,1695785591
138,kaiapoi,-43.3783,172.6401,9.2,87,100,7.72,NZ,1695785591
139,yueyang,29.3333,113.0919,29.66,57,0,1.24,CN,1695785524
140,nar'yan-mar,67.6713,53.087,4.14,92,98,6.54,RU,1695785591
141,weiser,44.251,-116.9693,16.11,45,43,0.45,US,1695785591
142,hithadhoo,-0.6,73.0833,28.1,70,11,5.84,MV,1695785592
143,jamestown,42.097,-79.2353,13.9,89,100,4.12,US,1695785575
144,horta,38.5333,-28.6333,18.34,86,98,1.79,PT,1695785592
145,ksar chellala,35.2122,2.3189,16.07,55,0,2.12,DZ,1695785592
146,san luis,-33.295,-66.3356,8.29,33,0,2.93,AR,1695785295
147,inirida,3.8653,-67.9239,25.09,88,59,1.18,CO,1695785593
148,vorgashor,67.5833,63.95,1.53,95,100,4.8,RU,1695785593
149,abepura,-2.6333,140.5833,28.45,74,20,3.09,ID,1695785593
150,ust-nera,64.5667,143.2,6.64,79,84,3.53,RU,1695785593
151,punta arenas,-53.15,-70.9167,2.06,93,75,2.06,CL,1695785535
152,qamdo,31.1667,97.2333,12.49,40,3,2.16,CN,1695785594
153,tralee,52.2704,-9.7026,13.11,90,100,6.31,IE,1695785553
154,abu dhabi,24.4667,54.3667,32.19,29,0,3.6,AE,1695785582
155,acarau,-2.8856,-40.12,26.17,75,13,6.6,BR,1695785595
156,talen,23.5667,76.7167,27.99,74,15,1.61,IN,1695785595
157,al ghayzah,16.2079,52.176,27.4,68,84,2.21,YE,1695785595
158,genhe,50.7833,121.5167,11.18,54,77,3.96,CN,1695785595
159,osakarovka,50.565,72.5692,17.43,55,97,3.61,KZ,1695785596
160,natal,-5.795,-35.2094,25.36,83,20,2.57,BR,1695785366
161,dingras,18.1032,120.6967,30.86,79,75,2.57,PH,1695785596
162,novi sad,45.2517,19.8369,16.0,47,33,2.25,RS,1695785596
163,bilibino,68.0546,166.4372,-0.24,94,100,4.13,RU,1695785597
164,tulnici,45.9167,26.6667,11.78,51,0,1.96,RO,1695785597
165,utrik,11.2278,169.8474,25.97,88,100,6.76,MH,1695785597
166,homer,59.6425,-151.5483,10.94,57,0,6.26,US,1695785598
167,carnarvon,-24.8667,113.6333,28.16,38,1,4.37,AU,1695785598
168,tual,-5.6667,132.75,25.53,85,61,8.83,ID,1695785598
169,berezovo,63.9381,65.0419,4.98,84,100,2.68,RU,1695785599
170,ust'-barguzin,53.45,108.9833,9.13,88,100,4.35,RU,1695785599
171,kuta,-8.7233,115.1723,29.97,74,20,3.6,ID,1695785599
172,chernyshevskiy,63.0128,112.4714,7.06,47,94,5.03,RU,1695785599
173,port alfred,-33.5906,26.891,14.72,79,100,9.29,ZA,1695785600
174,camocim,-2.9022,-40.8411,25.61,76,6,5.1,BR,1695785600
175,charters towers,-20.1,146.2667,30.43,15,5,5.82,AU,1695785600
176,nouadhibou,20.931,-17.0347,24.99,65,100,7.72,MR,1695785600
177,polyarnyy,69.1989,33.4478,9.73,86,98,7.5,RU,1695785601
178,fort bragg,35.139,-79.006,19.39,86,75,4.63,US,1695785601
179,kapa'a,22.0752,-159.319,29.99,67,40,8.75,US,1695785601
180,along,28.1667,94.7667,30.67,55,5,0.59,IN,1695785601
181,danane,7.2596,-8.155,22.26,99,89,0.84,CI,1695785602
182,abong mbang,3.9833,13.1833,19.27,98,75,1.06,CM,1695785602
183,saint-philippe,-21.3585,55.7679,21.77,77,39,5.62,RE,1695785602
184,stillwater,36.1156,-97.0584,24.15,60,0,3.6,US,1695785603
185,bontang,0.1333,117.5,29.64,64,97,3.77,ID,1695785603
186,nizhnyaya tavda,57.6731,66.1725,9.57,62,94,1.75,RU,1695785603
187,comodoro rivadavia,-45.8667,-67.5,11.92,37,0,11.83,AR,1695785603
188,flin flon,54.7682,-101.865,16.84,69,6,5.58,CA,1695785604
189,rio grande,-32.035,-52.0986,12.75,94,100,6.24,BR,1695785604
190,ina,35.8276,137.9538,28.14,66,78,1.73,JP,1695785510
191,zhezqazghan,47.7833,67.7667,14.32,67,20,2.0,KZ,1695785605
192,tazovsky,67.4667,78.7,1.78,71,99,5.7,RU,1695785605
193,goundam,16.4145,-3.6708,33.75,35,38,3.3,ML,1695785605
194,allapalli,19.4167,80.0667,29.47,76,67,0.87,IN,1695785605
195,katabu,-4.9333,122.5167,33.87,32,39,3.28,ID,1695785606
196,pimentel,-6.8367,-79.9342,20.16,83,0,7.2,PE,1695785606
197,san fernando de apure,7.8878,-67.4724,25.73,85,31,0.32,VE,1695785606
198,pestovo,58.5938,35.8024,7.08,93,23,1.78,RU,1695785606
199,fort st. john,56.2499,-120.8529,11.94,54,75,1.54,CA,1695785607
200,olinda,-8.0089,-34.8553,25.85,73,40,3.09,BR,1695785428
201,kushima,31.4583,131.2333,30.51,58,0,2.36,JP,1695785607
202,estevan,49.1334,-102.9842,14.19,82,0,6.17,CA,1695785505
203,siwa oasis,29.2041,25.5195,25.52,34,0,3.94,EG,1695785608
204,iskateley,67.6803,53.1512,4.03,91,98,6.56,RU,1695785608
205,whakatane,-37.9585,176.9854,16.4,76,73,3.58,NZ,1695785608
206,wewak,-3.5534,143.6268,27.22,80,97,3.52,PG,1695785608
207,nabunturan,7.5833,126.0167,30.82,66,90,1.92,PH,1695785609
208,flying fish cove,-10.4217,105.6791,25.82,78,75,7.2,CX,1695785609
209,limon,10.0,-83.0333,25.59,83,81,2.15,CR,1695785609
210,bridgewater,44.3835,-64.5155,11.82,90,0,2.06,CA,1695785609
211,smithers,54.7804,-127.1743,12.18,71,100,2.06,CA,1695785610
212,wildwood,38.5828,-90.6629,19.92,91,75,3.6,US,1695785545
213,port mathurin,-19.6833,63.4167,22.83,70,16,8.73,MU,1695785610
214,xinyuan,37.3,99.0,8.05,38,100,3.15,CN,1695785610
215,al marj,32.488,20.8317,18.54,76,10,3.19,LY,1695785610
216,itaituba,-4.2761,-55.9836,28.09,47,20,1.06,BR,1695785611
217,peachtree city,33.3968,-84.5958,23.23,90,40,2.06,US,1695785611
218,prince rupert,54.3161,-130.3201,14.05,82,100,13.89,CA,1695785611
219,elva,58.2225,26.4211,11.23,91,100,2.06,EE,1695785611
220,villamontes,-21.25,-63.5,19.35,72,100,4.29,BO,1695785612
221,nova sintra,14.8667,-24.7167,23.58,79,98,6.3,CV,1695785612
222,lorengau,-2.0226,147.2712,25.55,89,100,3.35,PG,1695785612
223,zhangye,38.9342,100.4517,20.19,31,17,2.29,CN,1695785612
224,oloron-sainte-marie,43.1944,-0.6107,14.76,79,75,1.81,FR,1695785613
225,codrington,-38.2667,141.9667,14.43,60,55,4.58,AU,1695785613
226,alofi,-19.0595,-169.9187,25.94,65,40,6.17,NU,1695785477
227,morrope,-6.5417,-80.0111,20.06,84,10,5.31,PE,1695785613
228,saipan,15.1355,145.701,30.39,79,40,4.63,MP,1695785614
229,chita,52.0333,113.55,14.94,36,76,6.0,RU,1695785614
230,castillos,-34.1667,-53.8333,9.26,95,100,5.38,UY,1695785602
231,tazacorte,28.629,-17.9293,23.54,69,75,4.63,ES,1695785614
232,port lincoln,-34.7333,135.8667,16.16,57,3,5.06,AU,1695785615
233,ceerigaabo,10.6162,47.368,19.19,67,31,3.8,SO,1695785615
234,casalbordino-miracoli,42.1535,14.5991,20.28,64,0,3.44,IT,1695785615
235,onega,63.9061,38.1404,9.65,96,45,3.37,RU,1695785615
236,midvagur,62.0511,-7.1939,10.46,93,75,2.57,FO,1695785616
237,solnechnyy,50.7214,136.6319,16.64,73,78,2.79,RU,1695785616
238,geraldton,-28.7667,114.6,35.23,20,0,8.23,AU,1695785616
239,taghazout,30.5426,-9.7112,18.43,90,9,1.0,MA,1695785617
240,santarem,-2.4431,-54.7083,28.07,89,0,2.06,BR,1695785429
241,sari,36.5633,53.0601,19.77,94,100,4.12,IR,1695785446
242,hadibu,12.65,54.0333,26.63,83,65,3.21,YE,1695785617
243,soto la marina,23.7667,-98.2167,24.59,89,0,2.23,MX,1695785617
244,taltal,-25.4,-70.4833,15.44,73,0,1.52,CL,1695785421
245,san sebastian de la gomera,28.0916,-17.1133,23.42,83,20,2.57,ES,1695785618
246,nagqu,31.5,92.0,12.44,40,5,5.45,CN,1695785618
247,vilyuysk,63.7553,121.6247,8.86,46,100,3.86,RU,1695785618
248,mos,43.1567,-7.5505,14.29,40,100,1.08,ES,1695785619
249,kinablangan,7.6947,126.5503,29.35,74,70,3.71,PH,1695785619
250,oberhausen,51.4667,6.85,15.75,86,15,1.5,DE,1695785619
251,pocone,-16.2567,-56.6228,31.72,30,85,2.35,BR,1695785619
252,at taj,24.2049,23.2857,24.64,19,0,4.89,LY,1695785620
253,hawaiian paradise park,19.5933,-154.9731,26.73,74,20,3.09,US,1695785401
254,neiafu,-18.65,-173.9833,28.38,65,20,5.14,TO,1695785620
255,boguchany,58.3814,97.4531,11.96,49,4,1.6,RU,1695785620
256,annau,37.8876,58.516,19.72,28,40,4.12,TM,1695785621
257,anar darah,32.7587,61.654,20.2,23,0,4.85,AF,1695785621
258,udachny,66.4167,112.4,1.92,80,100,8.57,RU,1695785621
259,antonio enes,-16.2325,39.9086,22.65,85,0,3.68,MZ,1695785621
260,richards bay,-28.783,32.0377,18.45,58,75,5.03,ZA,1695785622
261,cayambe,0.05,-78.1333,10.59,82,27,2.0,EC,1695785622
262,phongsali,21.6833,102.1058,16.96,99,100,0.56,LA,1695785623
263,arraial do cabo,-22.9661,-42.0278,21.94,92,96,7.76,BR,1695785623
264,kharabali,47.4196,47.2568,18.94,49,5,3.39,RU,1695785429
265,ulsteinvik,62.3432,5.8487,17.5,79,97,4.92,NO,1695785623
266,quellon,-43.1167,-73.6167,8.36,94,100,6.06,CL,1695785624
267,menomonie,44.8755,-91.9193,16.26,94,85,3.36,US,1695785624
268,san borja,-14.8167,-66.85,28.88,50,3,1.23,BO,1695785624
269,kerikeri,-35.2268,173.9474,18.28,68,29,2.68,NZ,1695785624
270,palopo,-2.9996,120.1921,28.88,60,96,3.08,ID,1695785624
271,kamensk-ural'skiy,56.4185,61.9329,10.65,70,100,3.74,RU,1695785625
272,coquimbo,-29.9533,-71.3436,12.85,76,0,1.54,CL,1695785625
273,kribi,2.95,9.9167,25.08,91,44,2.18,CM,1695785625
274,mali,12.079,-12.2982,15.73,94,100,1.01,GN,1695785625
275,luderitz,-26.6481,15.1594,17.33,38,0,3.11,NA,1695785626
276,konotop,51.2403,33.2026,11.21,90,24,2.94,UA,1695785626
277,mandalgovi,45.7625,106.2708,7.75,36,0,4.91,MN,1695785626
278,lensk,60.7253,114.9278,11.05,48,100,3.42,RU,1695785626
279,petropavlovsk-kamchatsky,53.0452,158.6483,14.33,33,0,2.0,RU,1695785627
280,fortuna,40.5982,-124.1573,15.51,86,0,0.0,US,1695785627
281,chaoyang,41.5703,120.4586,26.61,15,100,4.36,CN,1695785627
282,pombas,17.1503,-25.0201,24.88,81,14,5.05,CV,1695785627
283,gadzhiyevo,69.2551,33.3362,9.47,86,98,7.9,RU,1695785628
284,afaahiti,-17.75,-149.2833,25.59,88,92,5.79,PF,1695785628
285,rauma,61.1272,21.5113,12.02,95,100,3.85,FI,1695785628
286,kapoeta,4.7717,33.5903,22.26,80,57,1.44,SS,1695785629
287,tsiombe,-25.3,45.4833,23.7,59,26,1.97,MG,1695785629
288,wailua homesteads,22.0669,-159.378,29.24,67,40,8.75,US,1695785629
289,fukuecho,32.6881,128.8419,28.2,74,75,3.6,JP,1695785629
290,medicine hat,50.0501,-110.6683,19.24,40,100,6.69,CA,1695785464
291,as saffaniyah,27.9708,48.73,30.14,43,0,2.68,SA,1695785630
292,chandbali,20.7833,86.7667,31.12,65,72,2.2,IN,1695785630
293,batticaloa,7.7102,81.6924,28.93,67,99,0.81,LK,1695785630
294,la'ie,21.6477,-157.9253,28.98,73,4,4.02,US,1695785630
295,kayangel,8.0823,134.7173,28.0,80,100,10.47,PW,1695785631
296,porto novo,6.4965,2.6036,24.75,91,80,2.23,BJ,1695785500
297,prado,-17.3411,-39.2208,24.16,83,100,6.05,BR,1695785335
298,sao felix do xingu,-6.6447,-51.995,27.27,52,33,0.51,BR,1695785601
299,mata-utu,-13.2816,-176.1745,27.28,80,73,6.42,WF,1695785631
300,chipinge,-20.1883,32.6236,18.89,75,99,1.26,ZW,1695785632
301,christchurch,-43.5333,172.6333,9.15,90,100,7.72,NZ,1695784875
302,westport,41.1415,-73.3579,13.28,85,0,3.09,US,1695785601
303,crane,31.3974,-102.3501,26.36,36,30,4.72,US,1695785632
304,minas de marcona,-15.2119,-75.1103,12.4,88,89,5.92,PE,1695785632
305,cinisi,38.1562,13.1073,22.56,78,20,4.12,IT,1695785633
306,malanje,-9.5402,16.341,18.49,87,10,2.19,AO,1695785633
307,aioun,16.6614,-9.6149,30.76,49,100,4.39,MR,1695785633
308,iskilip,40.7353,34.4739,13.51,84,7,2.03,TR,1695785634
309,cartaya,37.2811,-7.1507,20.1,61,0,2.7,ES,1695785634
310,mili,6.0815,171.735,29.03,74,65,4.8,MH,1695785634
311,arkhangel'sk,64.5401,40.5433,11.34,93,100,3.31,RU,1695785634
312,kavieng,-2.5744,150.7967,27.83,78,94,2.88,PG,1695785634
313,nantucket,41.2835,-70.0995,16.03,82,0,5.14,US,1695785635
314,usinsk,65.9939,57.5281,9.55,98,100,5.2,RU,1695785635
315,sao vicente,-23.9631,-46.3919,34.1,76,60,2.0,BR,1695785635
316,bathsheba,13.2167,-59.5167,28.34,89,20,2.57,BB,1695785635
317,nemuro,43.3236,145.575,17.58,85,93,2.59,JP,1695785636
318,kupang,-10.1667,123.5833,32.32,55,20,3.6,ID,1695785636
319,broome,42.2506,-75.833,11.22,93,0,1.54,US,1695785636
320,karratha,-20.7377,116.8463,35.84,20,21,6.87,AU,1695785637
321,porangatu,-13.4408,-49.1486,28.93,38,23,1.72,BR,1695785637
322,amga,60.8953,131.9608,12.35,41,0,1.96,RU,1695785637
323,hammerfest,70.6634,23.6821,10.25,93,100,7.2,NO,1695785637
324,east stroudsburg,40.9995,-75.1813,13.22,93,11,2.2,US,1695785637
325,uliastay,47.7417,96.8444,7.74,50,78,5.79,MN,1695785494
326,nuku'alofa,-21.1333,-175.2,26.19,78,20,5.14,TO,1695785638
327,choibalsan,48.0667,114.5,9.33,71,94,7.6,MN,1695785638
328,tura,25.5198,90.2201,29.76,68,4,0.12,IN,1695785638
329,ascension,30.2169,-90.9001,26.15,94,42,0.74,US,1695785639
330,pruzhany,52.5567,24.4644,14.54,92,0,3.16,BY,1695785639
331,selfoss,63.9331,-20.9971,7.8,95,100,4.25,IS,1695785639
332,kyzyl-mazhalyk,51.1333,90.6,6.46,40,67,0.49,RU,1695785639
333,tongouson,5.0214,120.1328,28.24,76,15,7.93,PH,1695785640
334,opuwo,-18.0607,13.84,17.97,14,0,3.63,NA,1695785640
335,saldanha,-33.0117,17.9442,11.03,75,0,3.24,ZA,1695785476
336,maitum,6.0392,124.4986,29.79,63,54,3.28,PH,1695785640
337,nha trang,12.25,109.1833,33.0,62,100,2.65,VN,1695785640
338,yaya,56.206,86.44,9.48,56,0,3.68,RU,1695785641
339,abeche,13.8292,20.8324,27.5,42,19,1.87,TD,1695785641
340,pico truncado,-46.7949,-67.9573,8.5,53,88,13.21,AR,1695785641
341,bellevue,47.6104,-122.2007,13.85,92,100,3.6,US,1695785350
342,el reno,35.5323,-97.955,25.19,49,0,3.6,US,1695785642
343,punta del este,-34.9667,-54.95,12.06,84,75,4.63,UY,1695785402
344,berdigestyakh,62.0989,126.6992,12.1,52,71,2.81,RU,1695785642
345,el granada,37.5027,-122.4694,19.36,79,75,11.32,US,1695785431
346,niquelandia,-14.4739,-48.4597,27.98,36,7,1.22,BR,1695785643
347,bandar abbas,27.1865,56.2808,25.99,50,0,1.03,IR,1695785643
348,vilyuchinsk,52.9306,158.4028,15.15,53,100,2.57,RU,1695785643
349,ebon,4.582,168.6964,29.09,75,100,6.19,MH,1695785643
350,bandar,2.05,99.75,33.03,50,63,1.4,ID,1695785644
351,touros,-5.1989,-35.4608,25.7,72,100,5.21,BR,1695785369
352,auki,-8.7676,160.7034,29.98,63,77,5.28,SB,1695785644
353,ketchikan,55.3422,-131.6461,13.26,94,100,8.23,US,1695785597
354,miyako,39.6367,141.9525,20.95,86,100,0.64,JP,1695785645
355,tangalle,6.024,80.7911,25.09,73,96,5.62,LK,1695785429
356,rikaze,29.25,88.8833,15.08,36,5,0.95,CN,1695785645
357,ishinomaki,38.4167,141.3,21.0,91,100,2.73,JP,1695785645
358,wad az zaki,14.4619,32.2065,27.66,63,99,6.67,SD,1695785646
359,jayapura,-2.5333,140.7,28.66,87,100,3.06,ID,1695785646
360,queenstown,-31.8976,26.8753,4.73,85,25,0.93,ZA,1695785646
361,whitehorse,60.7161,-135.0538,6.43,88,100,1.03,CA,1695785379
362,lamu,-2.2717,40.902,23.12,82,22,4.37,KE,1695785646
363,pontianak,-0.0333,109.3333,30.99,58,20,2.57,ID,1695785647
364,bonthe,7.5264,-12.505,25.46,87,13,1.1,SL,1695785647
365,oban,56.4127,-5.4706,10.21,91,60,2.68,GB,1695785647
366,haiku-pauwela,20.9219,-156.3051,27.01,60,40,8.75,US,1695785648
367,tayu,-6.5397,111.0518,31.67,43,0,4.34,ID,1695785648
368,santa luzia,-19.7697,-43.8514,27.1,62,0,3.09,BR,1695785648
369,nuuk,64.1835,-51.7216,3.34,70,100,1.03,GL,1695785649
370,shwebo,22.5667,95.7,32.52,63,50,1.22,MM,1695785649
371,winterset,41.3308,-94.0138,16.68,82,2,2.68,US,1695785649
372,cerknica,45.7931,14.3625,13.29,92,23,2.25,SI,1695785649
373,fada,9.5667,8.3,20.96,80,100,0.66,NG,1695785650
374,happy valley-goose bay,53.3168,-60.3315,7.17,87,75,5.14,CA,1695785650
375,kolonia town,6.964,158.206,32.0,66,100,3.6,FM,1695785650
376,wangan,7.1597,125.4453,30.33,73,35,1.1,PH,1695785650
377,mushie,-3.0167,16.9,23.58,88,100,0.83,CD,1695785651
378,ta`u,-14.2336,-169.5144,26.09,71,53,7.83,AS,1695785651
379,gazli,40.1333,63.45,22.64,21,3,1.82,UZ,1695785651
380,manismata,-2.4667,111.0333,34.88,35,0,2.58,ID,1695785651
381,egilsstadir,65.2653,-14.3948,6.95,93,100,4.12,IS,1695785652
382,aktobe,50.2797,57.2072,11.05,82,0,2.0,KZ,1695785652
383,puerto aysen,-45.4,-72.7,5.71,100,100,2.48,CL,1695785652
384,ijebu-igbo,6.9798,4.0033,23.45,99,96,1.0,NG,1695785652
385,el alto,-4.2714,-81.2147,19.09,84,5,7.52,PE,1695785652
386,nieuw amsterdam,5.8833,-55.0833,27.23,84,22,3.03,SR,1695785653
387,chulucanas,-5.0925,-80.1625,21.41,76,9,2.57,PE,1695785653
388,colonia,50.9333,6.95,15.46,89,0,0.51,DE,1695785653
389,pishin,30.5803,66.9961,20.53,10,0,0.78,PK,1695785653
390,ouricuri,-7.8825,-40.0817,26.06,40,7,1.74,BR,1695785476
391,cheyenne,41.14,-104.8203,16.08,44,0,3.13,US,1695785654
392,malango,-2.9627,119.9001,29.43,38,98,2.48,ID,1695785654
393,kapuskasing,49.4169,-82.4331,9.05,81,20,1.03,CA,1695785654
394,zuera,41.8677,-0.7898,18.38,73,30,2.42,ES,1695785654
395,karimganj,24.8667,92.35,30.31,75,18,1.11,IN,1695785655
396,santa eulalia,-11.85,-76.6833,2.78,63,100,0.92,PE,1695785655
397,corner brook,48.9667,-57.9484,8.09,92,0,0.75,CA,1695785655
398,mumford,5.2618,-0.759,24.59,90,69,2.8,GH,1695785656
399,daru,-9.0763,143.2092,25.36,84,98,8.21,PG,1695785656
400,kattivakkam,13.2167,80.3167,30.04,76,100,1.72,IN,1695785656
401,morant bay,17.8815,-76.4093,29.79,84,96,2.85,JM,1695785656
402,broken hill,-31.95,141.4333,21.9,32,50,6.4,AU,1695785398
403,holdrege,40.4403,-99.3698,15.14,81,0,3.6,US,1695785657
404,coronel suarez,-37.4547,-61.9334,5.32,91,0,1.95,AR,1695785657
405,quirinopolis,-18.4483,-50.4517,31.2,31,98,2.03,BR,1695785657
406,cortez,37.3489,-108.5859,15.02,44,0,5.14,US,1695785657
407,kakata,6.53,-10.3517,24.49,99,52,0.69,LR,1695785658
408,sinabang,2.4803,96.3801,27.93,72,49,4.15,ID,1695785658
409,newman,37.3138,-121.0208,23.47,56,1,2.24,US,1695785658
410,keflavik,64.0049,-22.5624,8.95,93,75,10.29,IS,1695785659
411,santiago de cao,-7.9589,-79.2392,19.07,88,91,4.12,PE,1695785659
412,slyudyanka,51.6594,103.7061,6.55,99,100,1.12,RU,1695785659
413,muroto-misakicho,33.2833,134.15,26.48,75,0,3.75,JP,1695785659
414,sterling,39.0062,-77.4286,15.5,89,100,2.57,US,1695785430
415,dryden,49.7833,-92.7503,15.16,72,0,3.09,CA,1695785611
416,barranca,-10.75,-77.7667,17.78,85,96,4.1,PE,1695785660
417,fisterra,42.9049,-9.2629,14.86,87,100,5.77,ES,1695785660
418,balqash,46.8481,74.995,13.33,76,40,5.0,KZ,1695785660
419,bengkulu,-3.8004,102.2655,27.04,74,30,4.27,ID,1695785660
420,bodo,67.28,14.405,12.19,80,0,7.2,NO,1695785661
421,baranchinskiy,58.1617,59.6991,10.87,76,100,3.49,RU,1695785661
422,dubbo,-32.25,148.6167,28.07,20,15,8.75,AU,1695785610
423,alliance,40.9153,-81.1059,15.37,91,95,5.27,US,1695785603
424,gurupi,-11.7292,-49.0686,30.31,40,60,2.36,BR,1695785662
425,paramonga,-10.6667,-77.8333,17.95,87,90,4.3,PE,1695785662
426,sao miguel do araguaia,-13.275,-50.1628,30.87,35,50,3.79,BR,1695785663
427,dumai,1.6833,101.45,32.6,50,18,2.45,ID,1695785663
428,angaur state,6.906,134.13,28.18,79,100,10.9,PW,1695785663
429,san pedro,14.35,121.0167,30.75,75,75,2.06,PH,1695785663
430,usogorsk,63.4106,48.6872,11.03,93,100,4.26,RU,1695785664
431,barmer,25.75,71.3833,31.4,45,8,4.58,IN,1695785664
432,khovd,48.0056,91.6419,1.04,93,100,3.47,MN,1695785488
433,orizona,-17.0314,-48.2958,27.55,39,87,0.47,BR,1695785664
434,zouerate,22.7187,-12.4521,28.64,27,100,5.72,MR,1695785665
435,puerto leguizamo,-0.1934,-74.7819,25.59,74,51,0.79,CO,1695785665
436,moose jaw,50.4001,-105.5344,18.14,63,4,8.75,CA,1695785665
437,dagumba-an,8.1531,124.5908,26.78,80,27,1.58,PH,1695785666
438,island harbour,50.724,-1.2758,14.96,96,100,0.89,GB,1695785666
439,bandarbeyla,9.4942,50.8122,27.68,66,53,9.95,SO,1695785666
440,santa terezinha,-29.9002,-50.0904,18.4,99,100,1.97,BR,1695785666
441,dondo,-19.6094,34.7431,22.1,92,15,0.68,MZ,1695785667
442,mount gambier,-37.8333,140.7667,15.94,53,36,3.71,AU,1695785667
443,lhasa,29.65,91.1,16.15,46,12,2.48,CN,1695785667
444,xinmin,41.9908,122.8253,24.82,30,100,3.89,CN,1695785668
445,duki,30.1541,68.5728,26.04,28,0,0.59,PK,1695785668
446,cromwell,41.5951,-72.6454,11.34,92,0,0.0,US,1695785668
447,pakala,13.4667,79.1167,26.23,57,88,4.25,IN,1695785668
448,kununurra,-15.7667,128.7333,35.99,32,6,4.63,AU,1695785669
449,villa canas,-34.0057,-61.6076,7.75,90,1,2.42,AR,1695785669
450,stephenville,32.2207,-98.2023,26.07,56,0,2.06,US,1695785438
451,shendi,16.6915,33.4341,30.44,36,99,5.44,SD,1695785669
452,semera,11.501,41.201,28.45,45,73,1.23,ET,1695785670
453,bhadasar,28.2833,74.3167,31.82,39,0,2.46,IN,1695785670
454,pangoa,-12.1167,-73.0,25.48,63,97,1.27,PE,1695785670
455,bhamo,24.2667,97.2333,33.12,55,60,0.7,MM,1695785671
456,warrnambool,-38.3833,142.4833,13.36,62,32,4.56,AU,1695785440
457,muli,2.9167,73.5667,27.97,77,69,5.05,MV,1695785671
458,arang,21.2,81.9667,28.18,72,53,0.73,IN,1695785672
459,mossendjo,-2.9506,12.7261,21.87,90,98,0.78,CG,1695785672
460,harper,4.375,-7.7169,24.88,90,50,2.99,LR,1695785672
461,hotan,37.0997,79.9269,21.19,15,62,1.11,CN,1695785672
462,katsuura,35.1333,140.3,27.27,70,13,5.57,JP,1695785673
463,okhotsk,59.3833,143.3,10.24,48,46,2.88,RU,1695785673
464,montereau-fault-yonne,48.3833,2.95,13.25,66,81,1.92,FR,1695785673
465,shiguai,40.7058,110.2856,15.69,24,95,3.26,CN,1695785673
466,arauca,7.0847,-70.7591,25.98,94,0,0.0,CO,1695785674
467,dapitan,8.6464,123.4208,29.12,73,33,5.6,PH,1695785674
468,isla cristina,37.2,-7.3167,20.16,68,1,2.35,ES,1695785674
469,valdivia,-39.8142,-73.2459,4.05,98,52,0.73,CL,1695785674
470,hobyo,5.3505,48.5268,26.47,83,83,7.74,SO,1695785675
471,ponta delgada,37.7333,-25.6667,22.4,83,40,2.57,PT,1695785675
472,nova vicosa,-17.8919,-39.3719,24.42,81,100,7.1,BR,1695785595
473,jiangkou,25.4872,119.1986,31.05,62,17,6.87,CN,1695785675
474,el bayadh,33.6832,1.0193,16.74,36,24,2.54,DZ,1695785676
475,vizinga,61.0749,50.1031,9.51,90,96,2.98,RU,1695785676
476,russkaya polyana,49.417,31.9201,13.3,81,0,2.94,UA,1695785676
477,belmonte,-15.8631,-38.8828,24.26,88,39,5.28,BR,1695785676
478,shevchenko,48.5,35.0,16.72,47,0,2.71,UA,1695785676
479,lospalos,-8.5186,127.0025,27.98,50,26,5.87,TL,1695785677
480,waterloo,43.4668,-80.5164,15.36,88,100,4.63,CA,1695785581
481,maych'ew,12.7875,39.5422,15.31,72,98,1.04,ET,1695785677
482,puerto ayacucho,5.6639,-67.6236,25.31,88,94,1.87,VE,1695785677
483,kruisfontein,-34.0033,24.7314,11.6,72,83,2.67,ZA,1695785678
484,sangju,36.4153,128.1606,23.77,76,94,2.59,KR,1695785678
485,wangjing,24.6,94.0333,27.62,71,44,0.82,IN,1695785678
486,sagae,38.3725,140.2725,22.99,83,75,2.06,JP,1695785678
487,visby,57.6409,18.296,15.46,100,0,1.54,SE,1695785679
488,tambacounda,13.7539,-13.7586,25.03,88,20,4.12,SN,1695785679
489,talara,-4.5772,-81.2719,19.91,87,3,7.08,PE,1695785679
490,chibuto,-24.6867,33.5306,18.8,92,100,6.29,MZ,1695785679
491,jember,-8.166,113.7032,36.24,26,10,2.66,ID,1695785679
492,vadso,70.0744,29.7487,10.49,87,0,5.14,NO,1695785680
493,catarman,12.4989,124.6377,30.1,66,9,2.91,PH,1695785631
494,souillac,-20.5167,57.5167,23.21,73,40,4.63,MU,1695785680
495,rexburg,43.826,-111.7897,16.99,39,0,0.0,US,1695785681
496,palafrugell,41.9174,3.1631,16.46,91,58,1.79,ES,1695785536
497,bechar,31.6167,-2.2167,28.18,23,20,6.17,DZ,1695785681
498,cabo san lucas,22.8909,-109.9124,30.98,83,0,2.06,MX,1695785091
499,n'dalatando,-9.2978,14.9116,19.67,83,93,1.47,AO,1695785681
500,tofol,5.3248,163.0078,27.22,76,100,0.38,FM,1695785682
501,anna regina,7.2644,-58.5077,27.38,82,35,2.27,GY,1695785682
502,zheshart,62.0731,49.5733,10.44,89,95,3.57,RU,1695785682
503,jining,35.405,116.5814,19.27,85,100,1.07,CN,1695785682
504,lewistown,40.5992,-77.5714,15.48,94,100,0.0,US,1695785683
505,vaslui,46.6333,27.7333,14.64,39,0,2.98,RO,1695785683
506,yerofey pavlovich,53.9667,121.9667,8.4,86,100,3.75,RU,1695785683
507,necochea,-38.5473,-58.7368,7.34,94,71,4.45,AR,1695785683
508,gaalkacyo,6.7697,47.4308,25.26,67,28,5.96,SO,1695785684
509,remire-montjoly,4.9167,-52.2667,26.02,94,96,0.51,GF,1695785684
510,lagunas,-5.2269,-75.6753,24.5,78,50,1.5,PE,1695785684
511,guerrero negro,27.9769,-114.0611,20.33,81,9,7.65,MX,1695785684
512,toamasina,-18.1667,49.3833,20.0,94,40,1.54,MG,1695785684
513,huanuni,-18.2667,-66.85,7.34,50,4,0.76,BO,1695785685
514,west odessa,31.8424,-102.4988,26.79,41,37,4.62,US,1695785685
515,itoman,26.1247,127.6694,32.43,65,40,3.09,JP,1695785685
516,buritis,-15.6178,-46.4233,31.5,36,97,1.22,BR,1695785685
517,mana,5.6592,-53.7767,25.92,88,97,2.77,GF,1695785686
518,vilhena,-12.7406,-60.1458,25.46,52,31,1.64,BR,1695785686
519,port isabel,26.0734,-97.2086,29.02,75,0,4.12,US,1695785686
520,noshiro,40.2039,140.0242,24.46,60,92,2.94,JP,1695785686
521,grand falls-windsor,48.9332,-55.6649,4.72,91,7,0.45,CA,1695785687
522,aoulef,26.9667,1.0833,32.01,14,1,3.23,DZ,1695785687
523,nyurba,63.2842,118.3319,9.45,45,96,4.0,RU,1695785687
524,zhangjiajie,29.1294,110.4783,29.73,63,58,0.52,CN,1695785687
525,dudinka,69.4058,86.1778,0.9,78,72,7.42,RU,1695785687
526,serdar,38.9764,56.2757,21.72,30,98,0.92,TM,1695785688
527,nanao,37.05,136.9667,27.4,84,100,4.06,JP,1695785688
528,naze,28.3667,129.4833,29.51,75,10,4.94,JP,1695785688
529,khadan khak,30.7477,67.7085,19.32,10,0,3.23,PK,1695785689
530,port blair,11.6667,92.75,25.02,94,100,4.12,IN,1695785689
531,santa maria,-29.6842,-53.8069,14.61,94,100,2.06,BR,1695785639
532,tynda,55.1667,124.7167,8.28,93,100,2.32,RU,1695785689
533,wangkui,46.8333,126.5,19.45,37,45,6.79,CN,1695785690
534,seabra,-12.4186,-41.7703,19.13,69,32,1.5,BR,1695785690
535,rongelap,11.1635,166.8941,28.22,79,96,6.54,MH,1695785690
536,saint croix,17.7397,-64.7388,28.25,86,75,2.57,VI,1695785690
537,san jose de jachal,-30.2406,-68.7469,7.71,55,7,1.56,AR,1695785690
538,al qubbah,32.7616,22.2424,17.27,79,0,4.98,LY,1695785691
539,tumbi,-5.0667,32.7333,24.41,39,100,2.94,TZ,1695785691
540,yamada,39.4667,141.95,20.21,91,100,1.19,JP,1695785691
541,port elizabeth,-33.918,25.5701,14.62,68,0,4.12,ZA,1695785691
542,znamenskoye,57.1281,73.8282,9.02,78,97,2.87,RU,1695785692
543,saint-pierre,-21.3393,55.4781,21.98,56,0,2.57,RE,1695785692
544,conceicao da barra,-18.5933,-39.7322,24.21,77,98,4.58,BR,1695785692
545,gemena,3.25,19.7667,21.63,99,100,0.8,CD,1695785692
546,andi,42.7836,46.2617,8.59,72,0,1.32,RU,1695785693
547,regina,50.4501,-104.6178,16.06,70,0,10.8,CA,1695785537
548,essaouira,31.5125,-9.77,18.72,94,0,1.03,MA,1695785693
549,meadow lakes,61.6247,-149.6011,8.93,67,0,2.06,US,1695785693
550,palikir - national government center,6.9248,158.1611,31.41,66,100,3.6,FM,1695785694
551,porto velho,-8.7619,-63.9039,27.03,78,0,0.51,BR,1695785694
552,krasnokamsk,58.0802,55.7541,9.09,79,100,2.81,RU,1695785694
553,harstad,68.799,16.5293,12.11,88,90,9.83,NO,1695785694
554,miyaly,48.8844,53.7836,18.0,52,5,3.99,KZ,1695785695
555,myitkyina,25.3833,97.4,33.08,55,10,0.4,MM,1695785621
556,mermoz boabab,14.7065,-17.4758,27.88,89,20,2.06,SN,1695785695
557,asau,46.4333,26.4,8.51,48,0,2.32,RO,1695785695
558,labrador city,52.9463,-66.9114,7.95,66,0,1.03,CA,1695785410
559,soufriere,13.8562,-61.0566,26.78,95,20,0.0,LC,1695785696
560,palamos,41.8484,3.1291,16.83,91,53,1.79,ES,1695785696
561,sangre grande,10.5835,-61.1177,26.98,100,46,1.4,TT,1695785696
562,timmins,48.4669,-81.3331,6.9,93,20,1.54,CA,1695785696
563,sao joao da barra,-21.6403,-41.0511,22.5,92,76,4.81,BR,1695785697
564,zahedan,29.4963,60.8629,15.95,21,0,0.0,IR,1695785697
565,shaowu,27.3409,117.4831,30.74,73,27,0.65,CN,1695785697
566,erenhot,43.6475,111.9767,13.88,15,0,9.27,CN,1695785698
567,santana do acarau,-3.4606,-40.2122,25.33,75,21,2.58,BR,1695785698
568,tokar,18.4254,37.729,31.26,47,48,3.1,SD,1695785698
